city,longitude,latitude,elevation
石家庄市,114.514976,38.042007,77.0
井陉县,114.145669,38.032366,259.0
正定县,114.57043,38.14699,73.0
行唐县,114.553044,38.437535,100.0
灵寿县,114.383013,38.307908,105.0
高邑县,114.611659,37.615905,49.0
深泽县,115.20089,38.184572,39.0
赞皇县,114.386114,37.666549,122.0
无极县,114.976256,38.178852,44.0
平山县,114.186007,38.260288,132.0
元氏县,114.525508,37.767332,66.0
赵县,114.775914,37.756935,43.0
辛集市,115.217626,37.943239,38.0
晋州市,115.044141,38.033937,46.0
新乐市,114.683745,38.343952,75.0
唐山市,118.180149,39.63068,34.0
滦南县,118.68363,39.520272,12.0
乐亭县,118.91245,39.425748,9.0
迁西县,118.31467,40.141486,133.0
玉田县,117.738196,39.901827,17.0
遵化市,117.965878,40.189119,54.0
迁安市,118.701021,39.998861,49.0
滦州市,118.70301,39.740963,45.0
秦皇岛市,119.52022,39.888243,11.0
青龙满族自治县,118.94985,40.407473,263.0
昌黎县,119.199846,39.699677,7.0
卢龙县,118.891931,39.892564,51.0
邯郸市,114.53915,36.625849,54.0
临漳县,114.585514,36.322504,67.0
成安县,114.670094,36.445331,58.0
大名县,115.147985,36.286406,47.0
涉县,113.692157,36.586073,520.0
磁县,114.373965,36.37507,71.0
邱县,115.200049,36.811783,38.0
鸡泽县,114.889951,36.911525,36.0
广平县,114.948638,36.48382,50.0
馆陶县,115.281818,36.548295,42.0
魏县,114.939217,36.35926,53.0
曲周县,114.957549,36.766347,42.0
武安市,114.203685,36.69759,208.0
邢台市,114.49742,37.060227,74.0
临城县,114.498651,37.444512,97.0
内丘县,114.512226,37.287612,78.0
柏乡县,114.693447,37.48288,37.0
隆尧县,114.770509,37.351232,35.0
宁晋县,114.940006,37.624524,33.0
巨鹿县,115.037884,37.221293,31.0
新河县,115.251005,37.520891,27.0
广宗县,115.142766,37.074795,33.0
平乡县,115.03008,37.063771,34.0
威县,115.266829,36.975164,36.0
清河县,115.665081,37.0451,32.0
临西县,115.501258,36.871312,35.0
南宫市,115.40866,37.358907,27.0
沙河市,114.503023,36.855548,63.0
保定市,115.464523,38.874476,23.0
涞水县,115.713651,39.394305,41.0
阜平县,114.195118,38.849221,292.0
定兴县,115.808183,39.263219,29.0
唐县,114.982968,38.748477,73.0
高阳县,115.779149,38.700846,10.0
容城县,115.861635,39.043321,15.0
涞源县,114.694416,39.360622,853.0
望都县,115.15542,38.696221,45.0
安新县,115.935688,38.936102,9.0
易县,115.497487,39.350219,58.0
曲阳县,114.740476,38.614409,88.0
蠡县,115.583701,38.488064,20.0
顺平县,115.135133,38.837988,50.0
博野县,115.464295,38.458048,24.0
雄县,116.108624,38.994825,11.0
保定白沟新城,115.988386,39.244498,19.0
涿州市,115.97444,39.485684,38.0
定州市,114.990321,38.516746,58.0
安国市,115.327088,38.418985,32.0
高碑店市,115.873612,39.327233,32.0
张家口市,114.885895,40.768931,721.0
张北县,114.719927,41.159039,1390.0
康保县,114.60018,41.853016,1422.0
沽源县,115.688544,41.670497,1409.0
尚义县,113.968763,41.076588,1367.0
蔚县,114.589136,39.840154,912.0
阳原县,114.150267,40.104303,930.0
怀安县,114.386488,40.67527,826.0
怀来县,115.517868,40.415625,565.0
涿鹿县,115.196835,40.382681,534.0
赤城县,115.831256,40.913348,910.0
承德市,117.962749,40.952942,374.0
承德县,118.174166,40.768082,300.0
兴隆县,117.500558,40.417358,607.0
滦平县,117.332652,40.941644,529.0
隆化县,117.739026,41.314402,580.0
丰宁满族自治县,116.645798,41.209951,668.0
宽城满族自治县,118.485472,40.611333,325.0
围场满族蒙古族自治县,117.75934,41.938372,886.0
平泉市,118.702032,41.018482,515.0
沧州市,116.838715,38.304676,11.0
沧县,117.007478,38.219856,7.0
青县,116.804137,38.583657,8.0
东光县,116.537138,37.888844,15.0
海兴县,117.497545,38.143308,6.0
盐山县,117.230681,38.058074,9.0
肃宁县,115.829619,38.423044,15.0
南皮县,116.708603,38.038761,11.0
吴桥县,116.391557,37.628225,20.0
献县,116.122767,38.189924,15.0
孟村回族自治县,117.104514,38.053438,11.0
泊头市,116.578322,38.084262,14.0
任丘市,116.084412,38.685325,8.0
黄骅市,117.330043,38.372266,5.0
河间市,116.099362,38.446656,12.0
廊坊市,116.683546,39.538304,18.0
固安县,116.298696,39.438797,26.0
永清县,116.50608,39.330983,15.0
香河县,117.006072,39.763772,15.0
大城县,116.653917,38.705232,6.0
文安县,116.457628,38.873185,7.0
大厂回族自治县,116.98961,39.886569,17.0
霸州市,116.391488,39.125238,10.0
三河市,117.078269,39.982933,19.0
衡水市,115.668987,37.739367,23.0
枣强县,115.724365,37.514217,26.0
武邑县,115.887498,37.802036,20.0
武强县,115.982119,38.041447,17.0
饶阳县,115.725898,38.235313,21.0
安平县,115.518918,38.234769,28.0
故城县,115.965877,37.347873,29.0
景县,116.270558,37.692831,17.0
阜城县,116.175424,37.862984,18.0
深州市,115.559576,38.001535,26.0
太原市,112.549656,37.870451,789.0
清徐县,112.359367,37.608751,765.0
阳曲县,112.67292,38.058511,886.0
娄烦县,111.79715,38.067569,1199.0
古交市,112.175034,37.907414,1028.0
大同市,113.366749,40.09711,1053.0
阳高县,113.748944,40.361059,1053.0
天镇县,114.090871,40.42087,993.0
广灵县,114.282703,39.760404,973.0
灵丘县,114.234452,39.442459,933.0
浑源县,113.69183,39.706485,1097.0
左云县,112.703008,40.013442,1309.0
阳泉市,113.580426,37.857094,694.0
平定县,113.629777,37.804986,731.0
盂县,113.412279,38.086041,944.0
长治市,113.117394,36.195142,932.0
襄垣县,113.051298,36.535629,866.0
平顺县,113.435859,36.20037,1127.0
黎城县,113.387025,36.502258,743.0
壶关县,113.206836,36.115645,1035.0
长子县,112.877922,36.122258,944.0
武乡县,112.86396,36.837865,967.0
沁县,112.699176,36.756152,969.0
沁源县,112.337726,36.499989,1006.0
晋城市,112.852022,35.491315,710.0
沁水县,112.186726,35.690119,971.0
阳城县,112.414798,35.486275,619.0
陵川县,113.280755,35.775239,1305.0
泽州县,112.922243,35.507061,762.0
高平市,112.923798,35.798775,839.0
朔州市,112.432906,39.331734,1090.0
山阴县,112.816421,39.527445,1063.0
应县,113.190952,39.554471,1006.0
右玉县,112.466926,39.989198,1349.0
怀仁市,113.133061,39.820522,1009.0
晋中市,112.752633,37.688006,809.0
榆社县,112.975378,37.071209,1017.0
左权县,113.379412,37.082746,1144.0
和顺县,113.570295,37.329696,1273.0
昔阳县,113.707151,37.612577,875.0
寿阳县,113.176373,37.895191,1073.0
祁县,112.335226,37.358425,762.0
平遥县,112.175825,37.189614,766.0
灵石县,111.778692,36.848085,769.0
介休市,111.916451,37.027538,757.0
运城市,111.007051,35.02667,363.0
临猗县,110.774553,35.144406,399.0
万荣县,110.837957,35.415805,595.0
闻喜县,111.224485,35.356664,473.0
稷山县,110.983273,35.604515,392.0
新绛县,111.224767,35.616007,405.0
绛县,111.568849,35.491764,737.0
垣曲县,111.670215,35.298297,571.0
夏县,111.219946,35.140733,410.0
平陆县,111.193957,34.829595,386.0
芮城县,110.694418,34.694173,506.0
永济市,110.447771,34.866499,356.0
河津市,110.712032,35.596357,406.0
忻州市,112.734149,38.415958,791.0
定襄县,112.957234,38.471725,758.0
五台县,113.255419,38.728056,1052.0
代县,112.960102,39.066831,856.0
繁峙县,113.265464,39.188835,929.0
宁武县,112.304734,39.001498,1422.0
静乐县,111.939498,38.359306,1251.0
神池县,112.210997,39.091079,1557.0
五寨县,111.846808,38.91111,1433.0
岢岚县,111.572964,38.703989,1376.0
河曲县,111.138247,39.38452,861.0
保德县,111.085944,39.022616,877.0
偏关县,111.508922,39.436917,1126.0
原平市,112.711025,38.731412,823.0
临汾市,111.51931,36.088581,450.0
曲沃县,111.475783,35.641883,460.0
翼城县,111.719048,35.739706,587.0
襄汾县,111.441725,35.876293,453.0
洪洞县,111.67571,36.254087,456.0
古县,111.92031,36.266767,725.0
安泽县,112.250242,36.147921,884.0
浮山县,111.848883,35.968124,835.0
吉县,110.680513,36.096833,886.0
乡宁县,110.846585,35.970834,1037.0
大宁县,110.752914,36.465126,780.0
隰县,110.940752,36.693345,1022.0
永和县,110.631981,36.759524,953.0
蒲县,111.096457,36.41183,1017.0
汾西县,111.563993,36.652833,947.0
侯马市,111.372002,35.619105,426.0
霍州市,111.755111,36.569046,600.0
吕梁市,111.14454,37.518996,971.0
文水县,112.028866,37.438101,761.0
交城县,112.155857,37.55169,769.0
兴县,111.127486,38.461818,1035.0
临县,110.992712,37.951008,1005.0
柳林县,110.888993,37.429816,833.0
石楼县,110.834712,36.998461,1021.0
岚县,111.672156,38.279587,1193.0
方山县,111.244309,37.895017,1225.0
中阳县,111.178841,37.357816,1115.0
交口县,111.181241,36.982205,1375.0
孝义市,111.778935,37.146051,752.0
汾阳市,111.770834,37.261493,758.0
呼和浩特市,111.748814,40.842127,1071.0
土默特左旗,111.16373,40.729044,1048.0
托克托县,111.193879,40.277703,1020.0
和林格尔县,111.821695,40.379226,1176.0
清水河县,111.647351,39.921224,1184.0
武川县,111.451226,41.096511,1599.0
包头市,109.95315,40.621327,1063.0
土默特右旗,110.527831,40.578253,1013.0
固阳县,110.060055,41.034757,1358.0
达尔罕茂明安联合旗,110.432626,41.698992,1371.0
乌海市,106.79415,39.655048,1092.0
赤峰市,118.887613,42.256876,583.0
阿鲁科尔沁旗,120.065533,43.872398,381.0
巴林左旗,119.362832,43.961547,496.0
巴林右旗,118.664235,43.534171,633.0
林西县,118.05545,43.61812,814.0
克什克腾旗,117.545413,43.265057,1072.0
翁牛特旗,119.006187,42.936529,635.0
喀喇沁旗,118.701934,41.927103,755.0
宁城县,119.320056,41.600193,546.0
敖汉旗,119.921413,42.290731,577.0
通辽市,122.243309,43.653566,177.0
科尔沁左翼中旗,123.312202,44.126606,146.0
科尔沁左翼后旗,122.35677,42.935105,251.0
开鲁县,121.319216,43.601446,239.0
库伦旗,121.810629,42.735556,277.0
奈曼旗,120.657813,42.867433,368.0
扎鲁特旗,120.917953,44.567093,266.0
霍林郭勒市,119.681242,45.533598,831.0
鄂尔多斯市,109.782473,39.608744,1308.0
达拉特旗,110.034133,40.412766,1005.0
准格尔旗,111.239436,39.864923,1153.0
鄂托克前旗,107.47733,38.182402,1341.0
鄂托克旗,107.975948,39.089549,1372.0
杭锦旗,108.736011,39.833243,1388.0
乌审旗,108.819485,38.60453,1318.0
伊金霍洛旗,109.747435,39.565064,1316.0
呼伦贝尔市,119.77845,49.166536,627.0
阿荣旗,123.458943,48.126553,223.0
莫力达瓦达斡尔族自治旗,124.519023,48.477728,193.0
鄂伦春自治旗,123.725643,50.591604,423.0
鄂温克族自治旗,119.755253,49.146692,614.0
陈巴尔虎旗,119.424026,49.328916,596.0
新巴尔虎左旗,118.269782,48.21827,635.0
新巴尔虎右旗,116.8237,48.671865,555.0
满洲里市,117.379134,49.59862,653.0
牙克石市,120.711639,49.285947,657.0
扎兰屯市,122.708475,48.028396,320.0
额尔古纳市,120.180506,50.243102,574.0
根河市,121.520165,50.779758,715.0
巴彦淖尔市,107.387767,40.742987,1039.0
五原县,108.267466,41.088446,1025.0
磴口县,107.008288,40.330534,1053.0
乌拉特前旗,108.652114,40.737018,1022.0
乌拉特中旗,108.513653,41.58813,1320.0
乌拉特后旗,107.074748,41.08412,1036.0
杭锦后旗,107.151296,40.886596,1037.0
乌兰察布市,113.132227,40.994526,1378.0
卓资县,112.577716,40.894618,1473.0
化德县,114.01029,41.904123,1472.0
商都县,113.577778,41.562176,1379.0
兴和县,113.834176,40.8723,1280.0
凉城县,112.504243,40.532358,1260.0
察哈尔右翼前旗,113.212409,40.783551,1315.0
察哈尔右翼中旗,112.635348,41.277449,1740.0
察哈尔右翼后旗,113.191505,41.435937,1448.0
四子王旗,111.706663,41.533542,1491.0
丰镇市,113.109875,40.437022,1194.0
兴安盟,122.037796,46.082373,278.0
乌兰浩特市,122.093309,46.072233,269.0
阿尔山市,119.943577,47.17744,1066.0
科尔沁右翼前旗,121.952638,46.079664,298.0
科尔沁右翼中旗,121.476357,45.060728,267.0
扎赉特旗,122.899627,46.723154,191.0
突泉县,121.593972,45.381918,296.0
锡林郭勒盟,116.047387,43.933212,987.0
二连浩特市,111.949594,43.64285,963.0
锡林浩特市,116.085814,43.933417,995.0
阿巴嘎旗,114.950185,44.022831,1137.0
苏尼特左旗,113.667171,43.859718,1061.0
苏尼特右旗,112.641806,42.742417,1105.0
东乌珠穆沁旗,116.97526,45.497329,836.0
西乌珠穆沁旗,117.608668,44.587746,998.0
太仆寺旗,115.283173,41.876889,1451.0
镶黄旗,113.847287,42.232371,1337.0
正镶白旗,115.029748,42.287493,1377.0
正蓝旗,115.991648,42.241815,1302.0
多伦县,116.485549,42.203454,1237.0
乌拉盖管理区管委会,118.833403,45.709922,860.0
阿拉善盟,105.729135,38.851554,1675.0
阿拉善左旗,105.666208,38.833589,1527.0
阿拉善右旗,101.666917,39.216185,1502.0
额济纳旗,101.055861,41.953963,939.0
沈阳市,123.464675,41.677576,50.0
康平县,123.343701,42.727249,102.0
法库县,123.440294,42.50108,134.0
新民市,122.835964,41.985757,32.0
大连市,121.614786,38.913962,34.0
长海县,122.588487,39.272779,6.0
瓦房店市,121.979463,39.62701,131.0
庄河市,122.965881,39.680825,2.0
鞍山市,122.994183,41.108239,50.0
台安县,122.436037,41.412866,8.0
岫岩满族自治县,123.280933,40.290995,86.0
海城市,122.685176,40.882548,18.0
抚顺市,123.957053,41.881311,84.0
抚顺县,123.899923,41.730094,117.0
新宾满族自治县,125.039994,41.734031,336.0
清原满族自治县,124.924028,42.100804,262.0
本溪市,123.684984,41.486834,110.0
本溪满族自治县,124.119545,41.301553,216.0
桓仁满族自治县,125.361061,41.267048,266.0
丹东市,124.354419,40.000646,4.0
宽甸满族自治县,124.783674,40.731319,285.0
东港市,124.152581,39.863193,4.0
凤城市,124.066873,40.45218,67.0
锦州市,121.126859,41.096114,22.0
黑山县,122.126645,41.653552,15.0
义县,121.239558,41.533553,68.0
凌海市,121.35499,41.160636,32.0
北镇市,121.777503,41.588657,66.0
营口市,122.219148,40.625027,-11.0
盖州市,122.34845,40.400259,9.0
大石桥市,122.509006,40.644482,29.0
阜新市,121.670052,42.022028,144.0
阜新蒙古族自治县,121.757901,42.065175,167.0
彰武县,122.538563,42.386264,83.0
辽阳市,123.239669,41.267396,40.0
辽阳县,123.106426,41.206246,48.0
灯塔市,123.339398,41.426537,39.0
盘锦市,122.170729,40.71956,1.0
盘山县,121.996408,41.243367,4.0
铁岭市,123.726008,42.223709,58.0
铁岭县,123.728933,42.223395,58.0
西丰县,124.727491,42.738178,213.0
昌图县,124.086628,42.779333,145.0
调兵山市,123.567039,42.468007,89.0
开原市,124.051886,42.577645,86.0
朝阳市,120.488801,41.601855,166.0
朝阳县,120.390001,41.497923,189.0
建平县,119.64328,41.402891,413.0
喀喇沁左翼蒙古族自治县,119.741223,41.12815,315.0
北票市,120.771389,41.801117,225.0
凌源市,119.401574,41.245445,400.0
葫芦岛市,120.836783,40.710974,20.0
绥中县,120.34432,40.325576,15.0
建昌县,119.836669,40.824484,379.0
兴城市,120.756661,40.60999,8.0
长春市,125.323643,43.816996,214.0
农安县,125.184921,44.432829,190.0
榆树市,126.533126,44.840263,198.0
德惠市,125.728552,44.521788,168.0
公主岭市,124.79379,43.495116,205.0
吉林市,126.549719,43.838132,195.0
永吉县,126.497899,43.672198,240.0
蛟河市,127.344773,43.72382,276.0
桦甸市,126.746245,42.972272,265.0
舒兰市,126.965515,44.405922,239.0
磐石市,126.060328,42.946608,322.0
四平市,124.350599,43.166764,165.0
梨树县,124.335389,43.30706,166.0
伊通满族自治县,125.305393,43.345754,244.0
双辽市,123.502398,43.518301,119.0
辽源市,125.144676,42.887961,268.0
东丰县,125.53096,42.677253,346.0
东辽县,124.991045,42.925636,260.0
通化市,125.939721,41.728312,405.0
通化县,125.758927,41.680135,417.0
辉南县,126.046006,42.684706,300.0
柳河县,125.744654,42.284594,364.0
梅河口市,125.711129,42.539183,320.0
集安市,126.193172,41.125805,205.0
白山市,126.414274,41.944132,489.0
抚松县,127.449387,42.221038,707.0
靖宇县,126.813262,42.388902,547.0
长白朝鲜族自治县,128.20066,41.420253,745.0
临江市,126.918086,41.811979,395.0
松原市,124.825321,45.14191,131.0
前郭尔罗斯蒙古族自治县,124.823417,45.118061,134.0
长岭县,123.967244,44.276293,189.0
乾安县,124.040651,45.003539,141.0
扶余市,126.049534,44.989057,183.0
白城市,122.838102,45.620131,152.0
镇赉县,123.19967,45.848195,138.0
通榆县,123.088093,44.812912,146.0
洮南市,122.79845,45.356849,147.0
大安市,124.291032,45.507004,135.0
延边朝鲜族自治州,129.470605,42.909426,218.0
延吉市,129.507655,42.891034,181.0
图们市,129.843807,42.968039,99.0
敦化市,128.232235,43.372669,504.0
珲春市,130.365829,42.862551,40.0
龙井市,129.426529,42.767172,268.0
和龙市,129.010932,42.546434,466.0
汪清县,129.785137,43.317215,263.0
安图县,128.899744,43.111978,387.0
哈尔滨市,126.53505,45.802981,117.0
依兰县,129.567777,46.325536,98.0
方正县,128.829513,45.851673,113.0
宾县,127.466372,45.746313,177.0
巴彦县,127.403521,46.086182,134.0
木兰县,128.043194,45.950649,113.0
通河县,128.74629,45.990214,107.0
延寿县,128.311071,45.445956,156.0
尚志市,128.009218,45.209199,190.0
五常市,127.167501,44.932164,200.0
齐齐哈尔市,123.918193,47.354892,148.0
龙江县,123.204953,47.338512,193.0
依安县,125.306161,47.893442,205.0
泰来县,123.416631,46.393694,141.0
甘南县,123.507935,47.921698,186.0
富裕县,124.474411,47.774038,164.0
克山县,125.875103,48.037748,228.0
克东县,126.249124,48.041562,296.0
拜泉县,126.09905,47.59586,235.0
讷河市,124.88293,48.466829,195.0
鸡西市,130.969385,45.295087,200.0
鸡东县,131.124083,45.260413,197.0
虎林市,132.937002,45.763262,88.0
密山市,131.846824,45.529482,130.0
鹤岗市,130.297687,47.350659,174.0
萝北县,130.820566,47.578979,83.0
绥滨县,131.852863,47.289522,59.0
双鸭山市,131.141563,46.676157,126.0
集贤县,131.141452,46.728448,103.0
友谊县,131.807815,46.767299,65.0
宝清县,132.196907,46.327335,85.0
饶河县,134.014125,46.79726,51.0
大庆市,125.104078,46.589498,148.0
肇州县,125.268449,45.699543,149.0
肇源县,125.078311,45.518982,128.0
林甸县,124.863628,47.171677,153.0
杜尔伯特蒙古族自治县,124.442829,46.862348,144.0
伊春市,128.840863,47.728332,254.0
嘉荫县,130.402406,48.888613,85.0
汤旺县,129.570935,48.454639,349.0
丰林县,129.533661,48.290566,309.0
大箐山县,129.020519,47.028313,231.0
南岔县,129.283584,47.139009,190.0
铁力市,128.032554,46.986604,213.0
佳木斯市,130.318916,46.800002,81.0
桦南县,130.553472,46.239314,170.0
桦川县,130.71908,47.023001,76.0
汤原县,129.904747,46.730623,88.0
同江市,132.510113,47.642475,52.0
富锦市,132.037659,47.250144,61.0
抚远市,134.30786,48.365027,45.0
七台河市,131.003015,45.771178,211.0
勃利县,130.592009,45.755856,219.0
牡丹江市,129.632928,44.551486,236.0
林口县,130.282286,45.279754,293.0
绥芬河市,131.151805,44.412487,513.0
海林市,129.380756,44.594017,279.0
宁安市,129.482505,44.340617,249.0
穆棱市,130.52446,44.918842,262.0
东宁市,131.124839,44.090361,180.0
黑河市,127.528226,50.244887,124.0
逊克县,128.478698,49.56429,117.0
孙吴县,127.336163,49.425645,227.0
北安市,126.490989,48.241168,263.0
五大连池市,126.205446,48.517342,252.0
嫩江市,125.221192,49.185766,223.0
绥化市,126.968714,46.654147,175.0
望奎县,126.486333,46.832185,179.0
兰西县,126.287734,46.252966,155.0
青冈县,126.099314,46.70398,204.0
庆安县,127.507586,46.880628,186.0
明水县,125.90601,47.173649,237.0
绥棱县,127.114928,47.235814,198.0
安达市,125.307629,46.451882,144.0
肇东市,125.962419,46.050664,145.0
海伦市,126.930191,47.450661,226.0
漠河市,122.539313,52.972465,435.0
呼玛县,126.651856,51.725924,172.0
塔河县,124.709733,52.334512,357.0
南京市,118.796624,32.059344,12.0
无锡市,120.311889,31.491064,5.0
江阴市,120.284794,31.921642,10.0
宜兴市,119.821873,31.338429,22.0
徐州市,117.283752,34.204224,34.0
丰县,116.658111,34.697232,39.0
沛县,116.936353,34.760761,34.0
睢宁县,117.941364,33.913727,22.0
新沂市,118.354747,34.369585,29.0
邳州市,118.012511,34.339208,23.0
常州市,119.974092,31.811313,5.0
溧阳市,119.484164,31.416967,8.0
苏州市,120.585294,31.299758,7.0
常熟市,120.752512,31.656016,6.0
张家港市,120.555979,31.876739,7.0
昆山市,120.980795,31.385476,4.0
太仓市,121.130344,31.458043,4.0
南通市,120.894522,31.981269,3.0
如东县,121.18495,32.331584,3.0
启东市,121.65523,31.792831,3.0
如皋市,120.574028,32.371493,5.0
海安市,120.46779,32.532853,5.0
连云港市,119.221487,34.596639,17.0
东海县,118.752869,34.542194,20.0
灌云县,119.239426,34.284074,2.0
灌南县,119.315583,34.087251,1.0
淮安市,119.113166,33.551495,8.0
涟水县,119.260589,33.781648,10.0
盱眙县,118.544545,33.011905,33.0
金湖县,119.020432,33.024663,8.0
盐城市,120.16263,33.348176,2.0
响水县,119.578332,34.199172,3.0
滨海县,119.820713,33.990372,1.0
阜宁县,119.802271,33.758857,1.0
射阳县,120.326338,33.766277,-8.0
建湖县,119.788743,33.438931,1.0
东台市,120.320308,32.867845,3.0
扬州市,119.412834,32.394404,9.0
宝应县,119.358389,33.241125,1.0
仪征市,119.184468,32.272833,7.0
高邮市,119.45892,32.781606,3.0
镇江市,119.424441,32.188141,27.0
丹阳市,119.606071,32.010035,8.0
扬中市,119.796816,32.236476,5.0
句容市,119.168693,31.945732,22.0
泰州市,119.922883,32.456692,4.0
兴化市,119.85255,32.911952,0.0
靖江市,120.277124,31.98325,1.0
泰兴市,120.051475,32.173072,4.0
宿迁市,118.275228,33.963186,26.0
沭阳县,118.804321,34.110642,5.0
泗阳县,118.703636,33.723576,13.0
泗洪县,118.223941,33.476575,16.0
杭州市,120.210792,30.246026,8.0
桐庐县,119.691755,29.79418,27.0
淳安县,119.042015,29.609678,141.0
建德市,119.281195,29.474964,84.0
宁波市,121.62454,29.860258,4.0
象山县,121.869251,29.476826,32.0
宁海县,121.429729,29.287929,35.0
余姚市,121.154572,30.037967,7.0
慈溪市,121.266525,30.170695,8.0
温州市,120.699279,27.993849,7.0
永嘉县,120.69136,28.153914,42.0
平阳县,120.565161,27.662394,77.0
苍南县,120.425957,27.518636,6.0
文成县,120.090929,27.786856,129.0
泰顺县,119.717643,27.556578,537.0
瑞安市,120.655245,27.778967,17.0
乐清市,120.986297,28.112519,7.0
龙港市,120.552952,27.578379,6.0
嘉兴市,120.755623,30.746814,6.0
嘉善县,120.926031,30.83085,5.0
海盐县,120.94628,30.52664,6.0
海宁市,120.680224,30.511536,7.0
平湖市,121.015619,30.677804,6.0
桐乡市,120.565127,30.630375,6.0
湖州市,120.086881,30.894178,4.0
德清县,119.9774,30.54251,12.0
长兴县,119.911212,31.026962,6.0
安吉县,119.680261,30.638803,17.0
绍兴市,120.582886,30.051549,9.0
新昌县,120.903918,29.500525,73.0
诸暨市,120.246602,29.709398,16.0
嵊州市,120.830505,29.561519,28.0
金华市,119.647265,29.079195,45.0
武义县,119.816341,28.892562,86.0
浦江县,119.89259,29.453363,74.0
磐安县,120.449937,29.054491,342.0
兰溪市,119.460404,29.209059,35.0
义乌市,120.075679,29.306296,71.0
东阳市,120.24179,29.290158,79.0
永康市,120.047356,28.88899,92.0
衢州市,118.859307,28.970229,68.0
常山县,118.511224,28.902446,115.0
开化县,118.415756,29.136729,182.0
龙游县,119.1723,29.028214,55.0
江山市,118.627228,28.73796,116.0
舟山市,122.207395,29.985578,-5.0
岱山县,122.225718,30.264533,0.0
嵊泗县,122.45132,30.725677,46.0
台州市,121.42079,28.655716,12.0
三门县,121.39561,29.104888,50.0
天台县,121.006657,29.144594,58.0
仙居县,120.728733,28.846856,58.0
温岭市,121.385435,28.372805,16.0
临海市,121.144625,28.859042,44.0
玉环市,121.231915,28.136703,41.0
丽水市,119.923249,28.467694,79.0
青田县,120.289693,28.1396,93.0
缙云县,120.091685,28.659294,199.0
遂昌县,119.275865,28.592388,272.0
松阳县,119.481406,28.448883,130.0
云和县,119.573454,28.116024,151.0
庆元县,119.062572,27.619213,408.0
景宁畲族自治县,119.635686,27.973594,260.0
龙泉市,119.14126,28.074916,216.0
合肥市,117.227267,31.820567,35.0
长丰县,117.167632,32.478347,27.0
肥东县,117.4779,31.878601,17.0
肥西县,117.158416,31.707006,18.0
庐江县,117.288165,31.256978,17.0
巢湖市,117.890236,31.624464,22.0
芜湖市,118.433065,31.352614,7.0
南陵县,118.334083,30.914621,13.0
无为市,117.902265,31.304462,11.0
蚌埠市,117.388566,32.91682,20.0
怀远县,117.205083,32.971543,19.0
五河县,117.881312,33.126532,15.0
固镇县,117.316585,33.318371,22.0
淮南市,117.018603,32.585384,55.0
凤台县,116.710947,32.710536,23.0
寿县,116.798203,32.545027,23.0
马鞍山市,118.50685,31.668765,15.0
当涂县,118.497873,31.570857,9.0
含山县,118.101448,31.735559,18.0
和县,118.353668,31.74248,11.0
淮北市,116.798362,33.956264,33.0
濉溪县,116.76616,33.915612,33.0
铜陵市,117.811298,30.945214,22.0
枞阳县,117.250191,30.705466,13.0
安庆市,117.115349,30.531828,13.0
怀宁县,116.829612,30.73484,24.0
太湖县,116.30881,30.454198,62.0
宿松县,116.134485,30.171663,57.0
望江县,116.70641,30.128404,16.0
岳西县,116.359732,30.849716,399.0
桐城市,116.936588,31.035476,44.0
潜山市,116.581224,30.631022,27.0
黄山市,118.337643,29.714886,144.0
歙县,118.415258,29.861354,154.0
休宁县,118.193533,29.784532,151.0
黟县,117.938139,29.92477,211.0
祁门县,117.717452,29.854179,147.0
滁州市,118.333439,32.255904,27.0
来安县,118.432581,32.423072,23.0
全椒县,118.274149,32.08593,18.0
定远县,117.698528,32.530741,70.0
凤阳县,117.531791,32.875714,43.0
天长市,119.004838,32.667409,21.0
明光市,118.018197,32.78193,29.0
阜阳市,115.814252,32.891032,31.0
临泉县,115.26312,33.038884,36.0
太和县,115.621941,33.160327,34.0
阜南县,115.596003,32.659681,34.0
颍上县,116.256772,32.653211,26.0
界首市,115.374688,33.257799,38.0
宿州市,116.96419,33.647726,28.0
砀山县,116.366257,34.442139,44.0
萧县,116.947289,34.18884,50.0
灵璧县,117.549321,33.554464,24.0
泗县,117.910277,33.483686,18.0
六安市,116.519729,31.735892,71.0
霍邱县,116.277966,32.353362,29.0
舒城县,116.94863,31.462036,21.0
金寨县,115.934253,31.727295,75.0
霍山县,116.348274,31.409668,81.0
亳州市,115.778588,33.846285,39.0
涡阳县,116.21665,33.494134,33.0
蒙城县,116.56434,33.265671,28.0
利辛县,116.206396,33.158424,28.0
池州市,117.495663,30.674264,12.0
东至县,117.027533,30.111182,40.0
石台县,117.486211,30.210218,112.0
青阳县,117.847366,30.639006,19.0
宣城市,118.759127,30.939278,16.0
郎溪县,119.184326,31.142995,12.0
泾县,118.419552,30.688793,44.0
绩溪县,118.578519,30.067533,177.0
旌德县,118.550043,30.298287,222.0
宁国市,118.983085,30.634032,58.0
广德市,119.420799,30.877608,43.0
福州市,119.296411,26.074286,14.0
闽侯县,119.131362,26.150428,15.0
连江县,119.539542,26.197737,15.0
罗源县,119.549129,26.490215,55.0
闽清县,118.863334,26.221099,95.0
永泰县,118.932746,25.867198,60.0
平潭县,119.789893,25.498767,30.0
福清市,119.384388,25.720081,22.0
厦门市,118.08891,24.479627,18.0
莆田市,119.007662,25.454202,40.0
仙游县,118.689745,25.373373,78.0
三明市,117.638919,26.263455,256.0
明溪县,117.202119,26.355938,406.0
清流县,116.816772,26.177658,360.0
宁化县,116.654369,26.262298,329.0
大田县,117.846828,25.692535,406.0
尤溪县,118.190515,26.169942,227.0
将乐县,117.471127,26.728917,184.0
泰宁县,117.175448,26.900244,308.0
建宁县,116.848488,26.833566,311.0
永安市,117.365046,25.941671,209.0
泉州市,118.675724,24.874452,12.0
惠安县,118.781037,25.012449,29.0
安溪县,118.186295,25.056065,74.0
永春县,118.29416,25.321849,140.0
德化县,118.241104,25.492102,520.0
金门县,118.319179,24.437147,18.0
石狮市,118.647945,24.731969,22.0
晋江市,118.551659,24.781635,38.0
南安市,118.385929,24.960056,50.0
漳州市,117.647298,24.515297,17.0
云霄县,117.334351,23.935433,18.0
漳浦县,117.613783,24.11741,14.0
诏安县,117.175314,23.711674,10.0
东山县,117.4295,23.702034,24.0
南靖县,117.357061,24.5151,40.0
平和县,117.314798,24.363831,43.0
华安县,117.53411,25.00445,167.0
南平市,118.081325,27.382829,170.0
顺昌县,117.809433,26.793455,179.0
浦城县,118.541079,27.917804,245.0
光泽县,117.333812,27.541061,283.0
松溪县,118.785429,27.526028,224.0
政和县,118.857703,27.366122,260.0
邵武市,117.492778,27.340672,219.0
武夷山市,118.035321,27.756422,242.0
建瓯市,118.304712,27.023233,144.0
龙岩市,117.017362,25.075884,336.0
长汀县,116.357581,25.833531,332.0
上杭县,116.419447,25.049867,194.0
武平县,116.100216,25.096139,283.0
连城县,116.754472,25.710538,370.0
漳平市,117.419823,25.290481,184.0
宁德市,119.547729,26.666222,8.0
霞浦县,120.005267,26.885971,46.0
古田县,118.74603,26.578134,355.0
屏南县,118.985759,26.908256,861.0
寿宁县,119.514589,27.45467,851.0
周宁县,119.338998,27.104797,925.0
柘荣县,119.900597,27.23421,690.0
福安市,119.647871,27.088274,47.0
福鼎市,120.216559,27.324796,18.0
南昌市,115.857972,28.682976,17.0
南昌县,115.93349,28.557921,25.0
安义县,115.549158,28.845585,33.0
进贤县,116.242468,28.377627,27.0
景德镇市,117.184892,29.2744,45.0
浮梁县,117.214984,29.352493,44.0
乐平市,117.151499,28.978521,32.0
萍乡市,113.887147,27.658721,116.0
莲花县,113.961589,27.128498,187.0
上栗县,113.795294,27.880221,99.0
芦溪县,114.029351,27.631273,148.0
九江市,115.95356,29.66116,44.0
武宁县,115.092649,29.246785,78.0
修水县,114.546536,29.026166,146.0
永修县,115.83207,29.011392,38.0
德安县,115.767114,29.298599,38.0
都昌县,116.203999,29.273803,27.0
湖口县,116.252206,29.731194,34.0
彭泽县,116.563858,29.877404,67.0
瑞昌市,115.681221,29.676026,19.0
共青城市,115.784269,29.235082,29.0
庐山市,116.045118,29.448225,23.0
新余市,114.916665,27.818553,63.0
分宜县,114.69264,27.814723,82.0
鹰潭市,117.039532,28.272092,33.0
贵溪市,117.245178,28.292397,41.0
赣州市,114.933494,25.831139,107.0
信丰县,114.922485,25.38676,156.0
大余县,114.362306,25.401968,204.0
上犹县,114.55177,25.784754,159.0
崇义县,114.308135,25.682278,384.0
安远县,115.393992,25.136855,308.0
定南县,115.027908,24.783372,262.0
全南县,114.530148,24.742353,271.0
宁都县,116.009171,26.470865,196.0
于都县,115.415145,25.952564,131.0
兴国县,115.363475,26.338129,148.0
会昌县,115.809271,25.58734,181.0
寻乌县,115.638534,24.969513,307.0
石城县,116.347611,26.31491,286.0
瑞金市,116.027114,25.88623,200.0
龙南市,114.804474,24.901216,211.0
吉安市,114.96681,27.091243,54.0
吉安县,114.908337,27.039866,65.0
吉水县,115.135963,27.229697,70.0
峡江县,115.316567,27.5829,53.0
新干县,115.386853,27.740368,43.0
永丰县,115.421599,27.317301,66.0
泰和县,114.922987,26.801687,63.0
遂川县,114.520825,26.313413,106.0
万安县,114.759746,26.456821,94.0
安福县,114.619818,27.393286,93.0
永新县,114.242425,26.945157,124.0
井冈山市,114.289563,26.748132,251.0
宜春市,114.416826,27.816245,95.0
奉新县,115.400624,28.688254,48.0
万载县,114.445477,28.106201,95.0
上高县,114.948045,28.238591,64.0
宜丰县,114.803036,28.394466,80.0
靖安县,115.362635,28.861296,65.0
铜鼓县,114.354623,28.513291,288.0
丰城市,115.771131,28.160053,24.0
樟树市,115.546174,28.054632,29.0
高安市,115.366863,28.448054,36.0
抚州市,116.358054,27.948979,45.0
南城县,116.637228,27.570031,75.0
黎川县,116.907446,27.282729,123.0
南丰县,116.525898,27.21845,99.0
崇仁县,116.076363,27.754416,63.0
乐安县,115.83099,27.428682,183.0
宜黄县,116.236174,27.554744,117.0
金溪县,116.755018,27.91973,87.0
资溪县,117.060332,27.706088,250.0
广昌县,116.336556,26.843974,134.0
上饶市,117.943064,28.45513,84.0
玉山县,118.244736,28.681936,105.0
铅山县,117.734742,28.298415,69.0
横峰县,117.596433,28.407116,81.0
弋阳县,117.449346,28.378039,56.0
余干县,116.695787,28.70283,18.0
鄱阳县,116.703731,29.005675,24.0
万年县,117.058445,28.694582,52.0
婺源县,117.861532,29.248491,97.0
德兴市,117.594549,28.930557,68.0
济南市,117.120128,36.652069,139.0
平阴县,116.455865,36.289813,63.0
商河县,117.157165,37.309694,16.0
青岛市,120.382665,36.066938,13.0
胶州市,120.033382,36.26468,6.0
平度市,119.970192,36.753895,40.0
莱西市,120.517581,36.889167,66.0
淄博市,118.054994,36.813787,39.0
桓台县,118.097923,36.959794,17.0
高青县,117.826743,37.171042,11.0
沂源县,118.170856,36.185402,289.0
枣庄市,117.323759,34.810858,94.0
滕州市,117.165881,35.11412,70.0
东营市,118.674633,37.433992,2.0
利津县,118.255084,37.490919,10.0
广饶县,118.419437,37.053915,11.0
烟台市,121.447755,37.464551,7.0
龙口市,120.47614,37.645281,28.0
莱阳市,120.711555,36.979757,43.0
莱州市,119.942057,37.178187,47.0
招远市,120.433904,37.354517,87.0
栖霞市,120.849595,37.335993,139.0
海阳市,121.173506,36.688316,2.0
潍坊市,119.161721,36.707668,29.0
临朐县,118.543274,36.51246,94.0
昌乐县,118.841035,36.688035,79.0
青州市,118.479637,36.685178,100.0
诸城市,119.410051,35.996404,67.0
寿光市,118.791062,36.857133,22.0
安丘市,119.21892,36.479642,51.0
高密市,119.755271,36.382973,29.0
昌邑市,119.403185,36.843256,10.0
济宁市,116.587116,35.415117,41.0
微山县,117.129188,34.806657,35.0
鱼台县,116.650526,35.012706,34.0
金乡县,116.311549,35.06658,37.0
嘉祥县,116.342308,35.40794,42.0
汶上县,116.497277,35.711891,43.0
泗水县,117.250824,35.664719,99.0
梁山县,116.131779,35.765957,39.0
曲阜市,116.986212,35.581933,63.0
邹城市,117.007406,35.402536,88.0
泰安市,117.086963,36.201784,222.0
宁阳县,116.805578,35.758919,63.0
东平县,116.470211,35.937049,92.0
新泰市,117.768069,35.90953,204.0
肥城市,116.769098,36.181975,108.0
威海市,122.120519,37.513315,55.0
荣成市,122.487036,37.165698,27.0
乳山市,121.539557,36.920329,27.0
日照市,119.52685,35.416912,25.0
五莲县,119.213673,35.760154,142.0
莒县,118.869059,35.59125,107.0
临沂市,118.356464,35.103771,68.0
沂南县,118.465259,35.550078,113.0
郯城县,118.36727,34.614077,38.0
沂水县,118.628142,35.790919,146.0
兰陵县,118.070912,34.858235,44.0
费县,117.9776,35.265851,109.0
平邑县,117.615201,35.516849,157.0
莒南县,118.835166,35.206252,105.0
蒙阴县,117.953367,35.720128,220.0
临沭县,118.650828,34.920171,58.0
德州市,116.359244,37.436492,24.0
宁津县,116.800279,37.652456,17.0
庆云县,117.384163,37.774376,10.0
临邑县,116.866568,37.190139,19.0
齐河县,116.762767,36.784164,23.0
平原县,116.434016,37.165453,24.0
夏津县,116.001796,36.948013,33.0
武城县,116.069312,37.213398,26.0
乐陵市,117.232085,37.729769,11.0
禹城市,116.638558,36.934198,23.0
聊城市,115.985238,36.455857,36.0
阳谷县,115.791822,36.114392,41.0
莘县,115.669843,36.233711,39.0
东阿县,116.247655,36.335198,37.0
冠县,115.441684,36.484011,43.0
高唐县,116.230126,36.84715,28.0
临清市,115.704982,36.83828,36.0
滨州市,117.970731,37.382687,9.0
惠民县,117.593744,37.47528,10.0
阳信县,117.603407,37.632773,8.0
无棣县,117.625846,37.770579,6.0
博兴县,118.110715,37.154529,7.0
邹平市,117.74313,36.863393,47.0
菏泽市,115.479646,35.234309,54.0
曹县,115.556393,34.85875,50.0
单县,116.106396,34.779282,44.0
成武县,115.889775,34.95278,46.0
巨野县,116.062585,35.388543,40.0
郓城县,115.938939,35.575276,46.0
鄄城县,115.544507,35.534088,51.0
东明县,115.107402,35.275664,58.0
郑州市,113.625351,34.746303,112.0
中牟县,113.975798,34.720535,79.0
巩义市,113.022354,34.748207,201.0
荥阳市,113.383385,34.7866,146.0
新密市,113.390932,34.540216,307.0
新郑市,113.74024,34.396479,112.0
登封市,113.05056,34.454877,400.0
开封市,114.314278,34.798083,74.0
杞县,114.782629,34.549731,61.0
通许县,114.47315,34.502053,64.0
尉氏县,114.19305,34.411437,69.0
兰考县,114.818228,34.856372,73.0
洛阳市,112.453895,34.619702,144.0
新安县,112.13246,34.728909,305.0
栾川县,111.615729,33.7857,767.0
嵩县,112.085432,34.134639,333.0
汝阳县,112.473013,34.154283,322.0
宜阳县,112.179187,34.51462,225.0
洛宁县,111.652958,34.389371,351.0
伊川县,112.425751,34.421741,205.0
平顶山市,113.192595,33.766554,112.0
宝丰县,113.054538,33.869159,133.0
叶县,113.357476,33.627437,87.0
鲁山县,112.908052,33.738434,129.0
郏县,113.21261,33.971787,115.0
舞钢市,113.516427,33.314147,145.0
汝州市,112.844696,34.16717,214.0
安阳市,114.39248,36.098779,69.0
安阳县,114.462953,36.09211,66.0
汤阴县,114.357686,35.925155,78.0
滑县,114.517977,35.576128,62.0
内黄县,114.90146,35.972016,51.0
林州市,113.819275,36.084127,295.0
鹤壁市,114.297305,35.748329,89.0
浚县,114.550611,35.677249,63.0
淇县,114.208851,35.622571,74.0
新乡市,113.92679,35.303589,70.0
新乡县,113.813884,35.170066,78.0
获嘉县,113.657551,35.260153,78.0
原阳县,113.939829,35.066873,77.0
延津县,114.205624,35.165876,70.0
封丘县,114.418907,35.041237,70.0
卫辉市,114.064584,35.398357,69.0
辉县市,113.80572,35.462964,98.0
长垣市,114.66885,35.201628,63.0
焦作市,113.241902,35.215726,101.0
修武县,113.447862,35.22286,83.0
博爱县,113.064701,35.170332,127.0
武陟县,113.401848,35.099458,93.0
温县,113.08067,34.93961,107.0
沁阳市,112.950873,35.087569,118.0
孟州市,112.791372,34.907229,116.0
濮阳市,115.029246,35.762731,54.0
清丰县,115.104602,35.886694,50.0
南乐县,115.205876,36.070219,48.0
范县,115.504081,35.85302,47.0
台前县,115.871671,35.970286,43.0
濮阳县,115.029165,35.713113,52.0
许昌市,113.852004,34.03732,70.0
鄢陵县,114.177329,34.102985,62.0
襄城县,113.506904,33.851609,83.0
禹州市,113.488715,34.142442,116.0
长葛市,113.813972,34.195458,86.0
漯河市,114.0166,33.58038,64.0
舞阳县,113.609327,33.438259,89.0
临颍县,113.931121,33.828096,62.0
三门峡市,111.200482,34.773196,381.0
渑池县,111.761753,34.767937,519.0
卢氏县,111.04522,34.051866,579.0
义马市,111.874726,34.747563,515.0
灵宝市,110.894225,34.517734,422.0
南阳市,112.528549,32.990218,125.0
南召县,112.429277,33.489804,209.0
方城县,113.012849,33.255387,158.0
西峡县,111.473644,33.307272,229.0
镇平县,112.234571,33.033826,186.0
内乡县,111.849354,33.044698,163.0
淅川县,111.490902,33.137831,214.0
社旗县,112.948183,33.056229,119.0
唐河县,112.80829,32.682464,108.0
新野县,112.3601,32.521282,89.0
桐柏县,113.428702,32.379164,143.0
邓州市,112.08745,32.687732,113.0
商丘市,115.656358,34.415165,50.0
民权县,115.175019,34.648384,61.0
睢县,115.071957,34.446572,55.0
宁陵县,115.314221,34.461226,56.0
柘城县,115.305182,34.092015,47.0
虞城县,115.828519,34.400868,46.0
夏邑县,116.131422,34.237801,43.0
永城市,116.449864,33.929927,35.0
信阳市,114.091058,32.148624,113.0
罗山县,114.512838,32.20436,58.0
光山县,114.91934,32.010736,50.0
新县,114.879309,31.643914,114.0
商城县,115.406894,31.79832,92.0
固始县,115.654066,32.169239,58.0
潢川县,115.051683,32.131426,42.0
淮滨县,115.420101,32.474772,36.0
息县,114.740392,32.34312,48.0
周口市,114.701222,33.634652,49.0
扶沟县,114.394666,34.060062,60.0
西华县,114.529709,33.768277,53.0
商水县,114.608135,33.562072,49.0
沈丘县,115.098541,33.409805,40.0
郸城县,115.177141,33.64601,42.0
太康县,114.837946,34.064513,52.0
鹿邑县,115.484525,33.860698,42.0
项城市,114.875128,33.465609,43.0
驻马店市,114.021988,33.014038,81.0
西平县,114.021492,33.387658,63.0
上蔡县,114.264381,33.262439,74.0
平舆县,114.618537,32.96344,46.0
正阳县,114.392774,32.605697,76.0
确山县,114.016818,32.82134,89.0
泌阳县,113.327144,32.723974,145.0
汝南县,114.362477,33.006808,51.0
遂平县,114.013323,33.146316,64.0
新蔡县,114.965519,32.74488,40.0
济源市,112.602347,35.069057,146.0
武汉市,114.304569,30.593354,25.0
黄石市,115.038999,30.201082,27.0
阳新县,115.215211,29.830236,19.0
大冶市,114.98046,30.096263,21.0
十堰市,110.798921,32.629057,312.0
郧西县,110.426005,32.993095,264.0
竹山县,110.229696,32.225039,299.0
竹溪县,109.715322,32.318257,456.0
房县,110.726754,32.04017,494.0
丹江口市,111.513318,32.540287,126.0
宜昌市,111.286962,30.69217,66.0
远安县,111.640329,31.060904,118.0
兴山县,110.746831,31.348065,296.0
秭归县,110.97793,30.825882,168.0
长阳土家族自治县,111.20697,30.473038,248.0
五峰土家族自治县,111.07374,30.156741,344.0
宜都市,111.450128,30.378444,71.0
当阳市,111.78836,30.820893,70.0
枝江市,111.760616,30.425758,43.0
襄阳市,112.121743,32.010161,82.0
南漳县,111.838997,31.774649,119.0
谷城县,111.653077,32.26339,85.0
保康县,111.261308,31.87831,443.0
老河口市,111.683861,32.359068,88.0
枣阳市,112.772723,32.128968,121.0
宜城市,112.256486,31.720278,58.0
鄂州市,114.894909,30.391461,23.0
荆门市,112.199009,31.035445,100.0
沙洋县,112.588675,30.709167,39.0
钟祥市,112.588032,31.167933,51.0
京山市,113.119561,31.018414,67.0
孝感市,113.956962,30.918311,27.0
孝昌县,113.997794,31.258225,49.0
大悟县,114.127122,31.561179,85.0
云梦县,113.752958,31.021736,32.0
应城市,113.571864,30.928592,30.0
安陆市,113.688955,31.25565,51.0
汉川市,113.838068,30.673219,26.0
荆州市,112.24143,30.336282,31.0
公安县,112.229742,30.058519,35.0
江陵县,112.424581,30.042227,31.0
石首市,112.42538,29.720944,35.0
洪湖市,113.475984,29.827256,24.0
松滋市,111.756455,30.174717,67.0
监利市,112.904634,29.840229,29.0
黄冈市,114.872425,30.453722,35.0
团风县,114.872364,30.643225,20.0
红安县,114.618134,31.288167,62.0
罗田县,115.399149,30.783047,88.0
英山县,115.680953,30.734989,118.0
浠水县,115.265155,30.452212,37.0
蕲春县,115.436423,30.226146,33.0
黄梅县,115.944219,30.070453,23.0
麻城市,115.008011,31.172917,68.0
武穴市,115.595451,29.869602,17.0
咸宁市,114.322601,29.84135,45.0
嘉鱼县,113.939249,29.970575,31.0
通城县,113.816811,29.2454,118.0
崇阳县,114.039484,29.556866,71.0
通山县,114.482832,29.606468,76.0
赤壁市,113.900385,29.725122,56.0
随州市,113.382324,31.690275,80.0
随县,113.29097,31.883233,97.0
广水市,113.825977,31.617015,85.0
恩施土家族苗族自治州,109.488076,30.272104,455.0
恩施市,109.479572,30.295148,440.0
利川市,108.936456,30.290974,1089.0
建始县,109.722333,30.602195,605.0
巴东县,110.340921,31.042854,373.0
宣恩县,109.489918,29.986856,592.0
咸丰县,109.140163,29.665215,842.0
来凤县,109.407697,29.493474,464.0
鹤峰县,110.034011,29.890073,669.0
仙桃市,113.442973,30.328407,24.0
潜江市,112.900279,30.401954,32.0
天门市,113.166545,30.663706,28.0
长沙市,112.938882,28.228304,50.0
长沙县,113.080555,28.246821,61.0
浏阳市,113.64328,28.163866,85.0
宁乡市,112.551887,28.277709,71.0
株洲市,113.132783,27.828862,43.0
攸县,113.397152,27.01516,95.0
茶陵县,113.537907,26.777957,124.0
炎陵县,113.772665,26.489847,253.0
醴陵市,113.497119,27.6457,87.0
湘潭市,112.945439,27.83136,69.0
湘潭县,112.950767,27.779669,52.0
湘乡市,112.550268,27.718655,117.0
韶山市,112.525364,27.914796,117.0
衡阳市,112.572016,26.894216,75.0
衡阳县,112.370649,26.970258,74.0
衡南县,112.677572,26.739665,68.0
衡山县,112.868361,27.230225,57.0
衡东县,112.953113,27.081086,64.0
祁东县,112.090319,26.799284,188.0
耒阳市,112.859806,26.422149,87.0
常宁市,112.399894,26.421717,84.0
邵阳市,111.467855,27.239528,227.0
新邵县,111.458656,27.320917,230.0
邵阳县,111.273872,26.990785,277.0
隆回县,111.032437,27.113978,270.0
洞口县,110.575962,27.060274,321.0
绥宁县,110.155532,26.582027,344.0
新宁县,110.857294,26.432913,351.0
城步苗族自治县,110.322239,26.390598,507.0
武冈市,110.632286,26.727414,324.0
邵东市,111.744268,27.259812,258.0
岳阳市,113.128922,29.35648,37.0
岳阳县,113.116152,29.144681,39.0
华容县,112.540448,29.530775,31.0
湘阴县,112.909248,28.690123,42.0
平江县,113.581296,28.702018,79.0
汨罗市,113.067097,28.806937,38.0
临湘市,113.450461,29.476687,54.0
常德市,111.69905,29.031446,36.0
安乡县,112.171107,29.41131,34.0
汉寿县,111.970725,28.906063,31.0
澧县,111.758806,29.633138,39.0
临澧县,111.647547,29.440813,53.0
桃源县,111.488985,28.90232,41.0
石门县,111.380056,29.584344,64.0
津市市,111.877957,29.606512,45.0
张家界市,110.478887,29.117343,173.0
慈利县,111.139424,29.430429,122.0
桑植县,110.204804,29.414112,325.0
益阳市,112.355994,28.554853,68.0
南县,112.396323,29.362396,32.0
桃江县,112.156432,28.518215,85.0
安化县,111.213296,28.374223,154.0
沅江市,112.354657,28.845755,34.0
郴州市,113.015517,25.770117,216.0
桂阳县,112.733804,25.75382,320.0
宜章县,112.948806,25.40059,221.0
永兴县,113.116587,26.127155,129.0
嘉禾县,112.379216,25.616025,198.0
临武县,112.563833,25.276459,289.0
汝城县,113.685193,25.533024,609.0
桂东县,113.944792,26.077609,881.0
安仁县,113.269703,26.708569,104.0
资兴市,113.235841,25.977226,160.0
永州市,111.613482,26.419861,106.0
东安县,111.315893,26.392173,156.0
双牌县,111.659967,25.961909,213.0
道县,111.600866,25.526282,175.0
江永县,111.343543,25.274461,254.0
宁远县,111.945925,25.570817,219.0
蓝山县,112.195842,25.369575,277.0
新田县,112.203396,25.903965,207.0
江华瑶族自治县,111.57951,25.185257,222.0
祁阳市,111.840253,26.580292,101.0
怀化市,110.001598,27.569813,237.0
中方县,109.945436,27.440554,231.0
沅陵县,110.393782,28.452103,122.0
辰溪县,110.183159,28.006235,165.0
溆浦县,110.594419,27.908869,174.0
会同县,109.734724,26.887156,312.0
麻阳苗族自治县,109.817703,27.857666,162.0
新晃侗族自治县,109.174808,27.352094,360.0
芷江侗族自治县,109.684696,27.443429,256.0
靖州苗族侗族自治县,109.696249,26.575111,319.0
通道侗族自治县,109.784409,26.158032,400.0
洪江市,109.836475,27.209385,238.0
娄底市,111.994468,27.699838,120.0
双峰县,112.174623,27.457437,100.0
新化县,111.327674,27.725416,185.0
冷水江市,111.459199,27.656017,216.0
涟源市,111.663837,27.693813,173.0
湘西土家族苗族自治州,109.737428,28.312592,241.0
吉首市,109.698348,28.261948,207.0
泸溪县,110.219619,28.216109,156.0
凤凰县,109.580815,27.957441,374.0
花垣县,109.482378,28.57191,340.0
保靖县,109.660433,28.699939,343.0
古丈县,109.95072,28.616971,365.0
永顺县,109.857142,28.979819,522.0
龙山县,109.443974,29.457623,478.0
广州市,113.264499,23.130061,18.0
韶关市,113.597324,24.810977,67.0
始兴县,114.061998,24.953908,107.0
仁化县,113.749175,25.085764,130.0
翁源县,114.129986,24.350581,149.0
乳源瑶族自治县,113.275875,24.775856,116.0
新丰县,114.206641,24.059909,188.0
乐昌市,113.347669,25.129892,101.0
南雄市,114.31184,25.117653,129.0
深圳市,114.057939,22.543527,12.0
珠海市,113.576892,22.271644,14.0
汕头市,116.681956,23.354152,3.0
南澳县,117.023482,23.421658,34.0
佛山市,113.121586,23.021351,7.0
江门市,113.081548,22.578948,9.0
台山市,112.793812,22.251947,13.0
开平市,112.698113,22.377378,4.0
鹤山市,112.964203,22.765912,13.0
恩平市,112.304904,22.183743,26.0
湛江市,110.357538,21.270108,19.0
遂溪县,110.25043,21.378371,20.0
徐闻县,110.17595,20.325969,60.0
廉江市,110.286109,21.609988,26.0
雷州市,110.097011,20.914548,9.0
吴川市,110.779361,21.440763,13.0
茂名市,110.925533,21.662728,24.0
高州市,110.853169,21.918017,45.0
化州市,110.639581,21.664483,18.0
信宜市,110.946866,22.354887,102.0
肇庆市,112.465245,23.047747,10.0
广宁县,112.440694,23.634808,65.0
怀集县,112.166908,23.920806,59.0
封开县,111.512177,23.423928,89.0
德庆县,111.785544,23.145035,25.0
四会市,112.734309,23.326991,19.0
惠州市,114.415587,23.112368,20.0
博罗县,114.289602,23.172587,17.0
惠东县,114.720136,22.984831,34.0
龙门县,114.254898,23.727873,74.0
梅州市,116.122046,24.288832,84.0
大埔县,116.694825,24.347037,103.0
丰顺县,116.181895,23.739364,29.0
五华县,115.775751,23.932568,108.0
平远县,115.891235,24.566928,172.0
蕉岭县,116.171477,24.658963,157.0
兴宁市,115.731133,24.137296,117.0
汕尾市,115.375557,22.787204,13.0
海丰县,115.322974,22.967212,14.0
陆河县,115.659978,23.301557,72.0
陆丰市,115.652142,22.91874,4.0
河源市,114.700215,23.744276,39.0
紫金县,115.183814,23.635597,161.0
龙川县,115.26002,24.100599,123.0
连平县,114.488358,24.369552,235.0
和平县,114.935634,24.469177,165.0
东源县,114.7466,23.790079,41.0
阳江市,111.98343,21.856853,8.0
阳西县,111.617696,21.753935,14.0
阳春市,111.791587,22.17041,35.0
清远市,113.056098,23.682064,13.0
佛冈县,113.531559,23.879455,72.0
阳山县,112.641199,24.465234,114.0
连山壮族瑶族自治县,112.093726,24.570553,311.0
连南瑶族自治县,112.287212,24.725953,138.0
英德市,113.401827,24.20716,50.0
连州市,112.377255,24.780873,119.0
东莞市,113.751884,23.021016,16.0
中山市,113.392517,22.517024,10.0
潮州市,116.621901,23.657662,13.0
饶平县,117.0045,23.663294,7.0
揭阳市,116.372732,23.550968,7.0
揭西县,115.841742,23.431314,49.0
惠来县,116.295038,23.033889,10.0
普宁市,116.165646,23.297742,20.0
云浮市,112.044524,22.915163,129.0
新兴县,112.225174,22.695915,33.0
郁南县,111.535387,23.234561,22.0
罗定市,111.569788,22.768345,50.0
南宁市,108.366407,22.8177,81.0
隆安县,107.695721,23.166356,108.0
马山县,108.177764,23.708448,269.0
上林县,108.605089,23.432451,127.0
宾阳县,108.810336,23.217771,121.0
横州市,109.262448,22.681257,59.0
柳州市,109.428071,24.326442,93.0
柳城县,109.267125,24.654329,137.0
鹿寨县,109.750527,24.472897,97.0
融安县,109.397538,25.224549,120.0
融水苗族自治县,109.256609,25.066624,113.0
三江侗族自治县,109.607675,25.783197,190.0
桂林市,110.179752,25.235615,155.0
阳朔县,110.496305,24.778785,146.0
灵川县,110.319837,25.3948,167.0
全州县,111.087089,25.94939,161.0
兴安县,110.672013,25.612576,219.0
永福县,109.982974,24.980447,154.0
灌阳县,111.160764,25.489419,309.0
龙胜各族自治县,110.011662,25.79803,377.0
资源县,110.652612,26.042452,503.0
平乐县,110.632867,24.622814,179.0
恭城瑶族自治县,110.82841,24.831581,167.0
荔浦市,110.395232,24.48843,165.0
梧州市,111.279022,23.476733,37.0
苍梧县,111.547244,23.868208,56.0
藤县,110.914606,23.375538,30.0
蒙山县,110.525003,24.193567,152.0
岑溪市,110.994955,22.918327,112.0
北海市,109.120248,21.481305,16.0
合浦县,109.207236,21.66132,17.0
防城港市,108.35467,21.686732,4.0
上思县,107.983627,22.153671,183.0
东兴市,107.971828,21.547821,12.0
钦州市,108.654355,21.980894,12.0
灵山县,109.290698,22.416671,68.0
浦北县,109.556232,22.271902,93.0
贵港市,109.598903,23.11182,48.0
平南县,110.392489,23.540413,32.0
桂平市,110.079315,23.394208,41.0
玉林市,110.18097,22.654001,83.0
容县,110.558093,22.85844,85.0
陆川县,110.26412,22.321563,108.0
博白县,109.975856,22.273539,66.0
兴业县,109.875223,22.736395,120.0
北流市,110.353765,22.708415,102.0
百色市,106.61869,23.90307,146.0
田东县,107.125609,23.596706,113.0
德保县,106.615087,23.324084,676.0
那坡县,105.83234,23.387997,912.0
凌云县,106.56114,24.347444,531.0
乐业县,106.556564,24.776812,1033.0
田林县,106.22874,24.294627,401.0
西林县,105.097229,24.50762,821.0
隆林各族自治县,105.343816,24.770649,667.0
靖西市,106.417666,23.134375,746.0
平果市,107.589768,23.329815,121.0
贺州市,111.567216,24.404182,108.0
昭平县,110.811158,24.169675,68.0
钟山县,111.303085,24.526041,136.0
富川瑶族自治县,111.296012,24.811601,197.0
河池市,108.085244,24.692906,247.0
南丹县,107.540578,24.975066,749.0
天峨县,107.172287,24.999181,363.0
凤山县,107.042157,24.546913,594.0
东兰县,107.374259,24.510698,442.0
罗城仫佬族自治县,108.904613,24.777501,359.0
环江毛南族自治县,108.258426,24.825923,254.0
巴马瑶族自治县,107.258671,24.142216,303.0
都安瑶族自治县,108.105229,23.932704,160.0
大化瑶族自治县,107.998151,23.735699,172.0
来宾市,109.221243,23.750105,84.0
忻城县,108.665641,24.066176,164.0
象州县,109.704852,23.973832,105.0
武宣县,109.663153,23.594444,67.0
金秀瑶族自治县,110.190354,24.130509,932.0
合山市,108.885829,23.807032,125.0
崇左市,107.364973,22.377139,131.0
扶绥县,107.90389,22.635542,90.0
宁明县,107.076394,22.140242,119.0
龙州县,106.854001,22.343591,127.0
大新县,107.200654,22.829287,261.0
天等县,107.143539,23.080818,458.0
凭祥市,106.766715,22.094421,349.0
海口市,110.198418,20.045805,10.0
三亚市,109.511709,18.252865,13.0
三沙市,112.338649,16.831004,-8.0
西沙群岛,112.336821,16.831608,-4.0
南沙群岛,112.896229,9.548531,-596.0
儋州市,109.580812,19.520948,149.0
五指山市,109.516784,18.774827,348.0
琼海市,110.474524,19.259112,18.0
文昌市,110.797473,19.544234,14.0
万宁市,110.392605,18.793697,8.0
东方市,108.651829,19.095187,9.0
定安县,110.358001,19.681215,35.0
屯昌县,110.101667,19.351662,107.0
澄迈县,110.007497,19.738885,46.0
临高县,109.690508,19.912025,29.0
白沙黎族自治县,109.4429,19.221641,224.0
昌江黎族自治县,109.055783,19.298139,150.0
乐东黎族自治县,109.173384,18.750063,151.0
陵水黎族自治县,110.037553,18.506045,18.0
保亭黎族苗族自治县,109.700279,18.640339,62.0
琼中黎族苗族自治县,109.838423,19.03327,255.0
成都市,104.066301,30.572961,482.0
金堂县,104.411871,30.86203,451.0
大邑县,103.51226,30.573004,527.0
蒲江县,103.506478,30.197558,518.0
都江堰市,103.647193,30.988763,705.0
彭州市,103.957706,30.990463,592.0
邛崃市,103.464176,30.41029,504.0
崇州市,103.673025,30.630183,533.0
简阳市,104.547644,30.410937,413.0
自贡市,104.779307,29.33924,304.0
荣县,104.417438,29.445461,359.0
富顺县,104.975193,29.181779,297.0
攀枝花市,101.71846,26.582417,1122.0
米易县,102.111073,26.896372,1152.0
盐边县,101.854027,26.682611,1179.0
泸州市,105.441866,28.87098,261.0
泸县,105.381879,29.1516,315.0
合江县,105.831011,28.811278,239.0
叙永县,105.444777,28.155631,437.0
古蔺县,105.812694,28.038763,594.0
德阳市,104.397795,31.127449,491.0
中江县,104.678601,31.03327,431.0
广汉市,104.282204,30.977264,474.0
什邡市,104.167345,31.12655,524.0
绵竹市,104.220679,31.339251,586.0
绵阳市,104.679127,31.467673,476.0
三台县,105.093722,31.095826,391.0
盐亭县,105.389453,31.208362,411.0
梓潼县,105.170746,31.642635,502.0
北川羌族自治县,104.468163,31.617192,568.0
平武县,104.555481,32.409684,1023.0
江油市,104.74564,31.778572,532.0
广元市,105.844004,32.435774,491.0
旺苍县,106.290124,32.229074,550.0
青川县,105.238498,32.575821,899.0
剑阁县,105.524699,32.288681,568.0
苍溪县,105.934756,31.731709,401.0
遂宁市,105.592602,30.53268,283.0
蓬溪县,105.707498,30.75763,368.0
大英县,105.236852,30.594472,328.0
射洪市,105.388366,30.871079,342.0
内江市,105.057992,29.58021,322.0
威远县,104.669032,29.527456,324.0
资中县,104.851874,29.763419,354.0
隆昌市,105.287507,29.339408,364.0
乐山市,103.766085,29.552275,371.0
犍为县,103.949231,29.208118,342.0
井研县,104.06968,29.65165,386.0
夹江县,103.571313,29.738143,410.0
沐川县,103.902691,28.956394,427.0
峨边彝族自治县,103.262048,29.230426,695.0
马边彝族自治县,103.546347,28.83552,623.0
峨眉山市,103.484557,29.601189,437.0
南充市,106.110565,30.837235,315.0
南部县,106.036349,31.348255,374.0
营山县,106.565524,31.077057,339.0
蓬安县,106.412156,31.028537,323.0
仪陇县,106.303082,31.271693,367.0
西充县,105.900894,30.995546,360.0
阆中市,106.005046,31.558356,393.0
眉山市,103.848417,30.077113,415.0
仁寿县,104.133931,29.995638,458.0
洪雅县,103.365035,29.915828,472.0
丹棱县,103.512859,30.014398,492.0
青神县,103.846596,29.831302,394.0
宜宾市,104.642826,28.752354,319.0
江安县,105.066982,28.723797,298.0
长宁县,104.920643,28.582866,281.0
高县,104.517748,28.436166,339.0
珙县,104.708986,28.439514,486.0
筠连县,104.511159,28.167981,546.0
兴文县,105.236207,28.303669,385.0
屏山县,104.346138,28.82867,357.0
广安市,106.632647,30.456354,308.0
岳池县,106.440056,30.538656,384.0
武胜县,106.295945,30.349493,286.0
邻水县,106.930242,30.334911,359.0
华蓥市,106.783151,30.390439,280.0
达州市,107.46778,31.209278,309.0
宣汉县,107.727198,31.353845,378.0
开江县,107.868609,31.082945,468.0
大竹县,107.204702,30.736222,396.0
渠县,106.973114,30.836504,262.0
万源市,108.034393,32.081698,704.0
雅安市,103.041538,30.009998,619.0
荥经县,102.846537,29.793254,788.0
汉源县,102.650417,29.344275,892.0
石棉县,102.358364,29.230963,1066.0
天全县,102.771745,30.05728,810.0
芦山县,102.933618,30.145077,716.0
宝兴县,102.814156,30.382154,1360.0
巴中市,106.747548,31.867853,432.0
通江县,107.245033,31.911705,502.0
南江县,106.828697,32.346589,551.0
平昌县,107.103613,31.560436,387.0
资阳市,104.627265,30.129236,373.0
安岳县,105.35551,30.103623,319.0
乐至县,105.019823,30.275418,454.0
阿坝藏族羌族自治州,102.224504,31.899427,2830.0
马尔康市,102.206386,31.905799,2958.0
汶川县,103.590185,31.476875,1592.0
理县,103.163284,31.435831,2111.0
茂县,103.85332,31.681727,1678.0
松潘县,103.60428,32.655685,3013.0
九寨沟县,104.2426,33.252008,1643.0
金川县,102.063821,31.47625,2361.0
小金县,102.362984,30.995823,2531.0
黑水县,102.987592,32.069268,2578.0
壤塘县,100.978526,32.265796,3467.0
阿坝县,101.706548,32.902387,3285.0
若尔盖县,102.96738,33.578503,3459.0
红原县,102.544395,32.790841,3495.0
甘孜藏族自治州,101.96231,30.04952,2750.0
康定市,101.95687,29.998544,2990.0
泸定县,102.234814,29.914103,1584.0
丹巴县,101.89054,30.878618,2150.0
九龙县,101.507294,29.000347,3157.0
雅江县,101.014366,30.031498,2808.0
道孚县,101.125157,30.979486,3075.0
炉霍县,100.676014,31.390657,3286.0
甘孜县,99.991683,31.622731,3393.0
新龙县,100.311569,30.93917,3316.0
德格县,98.580914,31.806118,3541.0
白玉县,98.824025,31.209669,3271.0
石渠县,98.102938,32.978728,4211.0
色达县,100.333011,32.268541,3910.0
理塘县,100.269145,29.994228,3974.0
巴塘县,99.110555,30.00533,2672.0
乡城县,99.798116,28.931081,3014.0
稻城县,100.297369,29.03791,3800.0
得荣县,99.286366,28.713085,2684.0
凉山彝族自治州,102.267713,27.881396,1523.0
西昌市,102.264166,27.89441,1551.0
会理市,102.244774,26.655047,1804.0
木里藏族自治县,101.280216,27.928736,2259.0
盐源县,101.509038,27.422593,2551.0
德昌县,102.175661,27.402832,1390.0
会东县,102.577979,26.634744,1717.0
宁南县,102.751587,27.061431,1125.0
普格县,102.540901,27.376413,1462.0
布拖县,102.809157,27.7121,2399.0
金阳县,103.248786,27.696735,1281.0
昭觉县,102.839849,28.015301,2099.0
喜德县,102.412451,28.306429,1999.0
冕宁县,102.176622,28.550145,1801.0
越西县,102.507467,28.639874,1733.0
甘洛县,102.771441,28.959131,1189.0
美姑县,103.132359,28.328591,2047.0
雷波县,103.571705,28.263202,1200.0
贵阳市,106.628201,26.646694,1293.0
开阳县,106.964716,27.057823,1241.0
息烽县,106.740407,27.090479,1136.0
修文县,106.591958,26.836048,1270.0
清镇市,106.468686,26.570435,1229.0
六盘水市,104.830357,26.592538,1844.0
盘州市,104.471554,25.709878,1766.0
遵义市,107.031922,27.721931,876.0
桐梓县,106.824661,28.132991,1003.0
绥阳县,107.191326,27.946049,934.0
正安县,107.454463,28.553507,673.0
道真仡佬族苗族自治县,107.613076,28.862548,813.0
务川仡佬族苗族自治县,107.899353,28.562921,630.0
凤冈县,107.71646,27.954424,751.0
湄潭县,107.465492,27.748942,810.0
余庆县,107.906043,27.21513,623.0
习水县,106.19715,28.332923,1203.0
赤水市,105.697501,28.590474,275.0
仁怀市,106.401322,27.791883,851.0
安顺市,105.9476,26.253103,1383.0
普定县,105.743156,26.301876,1269.0
镇宁布依族苗族自治县,105.770543,26.057248,1300.0
关岭布依族苗族自治县,105.538335,25.953518,1239.0
紫云苗族布依族自治县,106.084441,25.751047,1201.0
毕节市,105.291544,27.283615,1529.0
大方县,105.601963,27.14443,1664.0
金沙县,106.220112,27.458601,968.0
织金县,105.770249,26.663649,1344.0
纳雍县,105.414578,26.779344,1531.0
威宁彝族回族苗族自治县,104.252787,26.873872,2204.0
赫章县,104.728011,27.117933,1648.0
黔西市,106.032277,27.008681,1229.0
铜仁市,109.189528,27.731555,296.0
江口县,108.843993,27.704883,408.0
玉屏侗族自治县,108.906415,27.235816,408.0
石阡县,108.223686,27.513499,561.0
思南县,108.253798,27.937464,490.0
印江土家族苗族自治县,108.409638,27.994442,523.0
德江县,108.120773,28.264028,615.0
沿河土家族自治县,108.503152,28.564083,416.0
松桃苗族自治县,109.202877,28.15427,401.0
黔西南布依族苗族自治州,104.906419,25.087733,1230.0
兴义市,104.895503,25.09196,1241.0
兴仁市,105.186132,25.43509,1356.0
普安县,104.953289,25.784225,1653.0
晴隆县,105.218956,25.834729,1515.0
贞丰县,105.64976,25.38558,1059.0
望谟县,106.094864,25.174204,609.0
册亨县,105.811592,24.983663,629.0
安龙县,105.442702,25.099014,1393.0
黔东南苗族侗族自治州,107.982838,26.583759,720.0
凯里市,107.981409,26.5662,769.0
黄平县,107.916651,26.905278,852.0
施秉县,108.124531,27.033107,564.0
三穗县,108.675265,26.953359,633.0
镇远县,108.429536,27.049033,586.0
岑巩县,108.815855,27.174124,416.0
天柱县,109.207826,26.909548,425.0
锦屏县,109.200808,26.675919,359.0
剑河县,108.441501,26.728274,617.0
台江县,108.321244,26.667525,708.0
黎平县,109.125826,26.213304,659.0
榕江县,108.52188,25.931893,293.0
从江县,108.904998,25.754638,287.0
雷山县,108.078217,26.378892,889.0
麻江县,107.589455,26.49129,985.0
丹寨县,107.789301,26.19857,949.0
黔南布依族苗族自治州,107.522303,26.253136,824.0
都匀市,107.518628,26.259456,810.0
福泉市,107.520371,26.686773,869.0
荔波县,107.898809,25.42379,547.0
贵定县,107.232208,26.557205,1028.0
瓮安县,107.471307,27.07838,1113.0
独山县,107.557591,25.865418,988.0
平塘县,107.322635,25.822395,738.0
罗甸县,106.751724,25.42616,493.0
长顺县,106.44057,26.003187,1187.0
龙里县,106.979177,26.453546,1107.0
惠水县,106.656993,26.132045,991.0
三都水族自治县,107.869489,25.983572,430.0
昆明市,102.833669,24.88149,1928.0
富民县,102.497722,25.221924,1701.0
宜良县,103.141674,24.91983,1546.0
石林彝族自治县,103.290536,24.771761,1693.0
嵩明县,103.043384,25.327273,1907.0
禄劝彝族苗族自治县,102.471993,25.551768,1718.0
寻甸回族彝族自治县,103.256559,25.558163,1906.0
安宁市,102.47865,24.919831,1863.0
曲靖市,103.796288,25.490866,1877.0
陆良县,103.66671,25.0293,1837.0
师宗县,103.985224,24.822471,1886.0
罗平县,104.297124,24.865388,1506.0
富源县,104.255082,25.674217,1848.0
会泽县,103.297155,26.417116,2136.0
宣威市,104.104255,26.218956,1958.0
玉溪市,102.526673,24.346786,1629.0
通海县,102.725538,24.11114,1889.0
华宁县,102.928914,24.19322,1634.0
易门县,102.161947,24.672156,1615.0
峨山彝族自治县,102.405698,24.168899,1601.0
新平彝族傣族自治县,101.990805,24.070436,1522.0
元江哈尼族彝族傣族自治县,101.998138,23.596068,395.0
澄江市,102.904181,24.675536,1763.0
保山市,99.161489,25.112018,1692.0
施甸县,99.18919,24.723084,1537.0
龙陵县,98.68941,24.586703,1617.0
昌宁县,99.605105,24.827739,1699.0
腾冲市,98.490276,25.020283,1689.0
昭通市,103.717078,27.338185,1919.0
鲁甸县,103.557969,27.186668,1943.0
巧家县,102.935343,26.896904,869.0
盐津县,104.234458,28.108475,654.0
大关县,103.891164,27.748054,1236.0
永善县,103.63756,28.229018,789.0
绥江县,103.968995,28.592119,583.0
镇雄县,104.873486,27.441527,1709.0
彝良县,104.055991,27.624277,978.0
威信县,105.049012,27.846839,1220.0
水富市,104.415964,28.629951,332.0
丽江市,100.225936,26.855165,2385.0
玉龙纳西族自治县,100.236967,26.821494,2438.0
永胜县,100.750907,26.684215,2156.0
华坪县,101.265373,26.629598,1220.0
宁蒗彝族自治县,100.851083,27.282207,2275.0
普洱市,100.966011,22.825229,1327.0
宁洱哈尼族彝族自治县,101.045743,23.048809,1353.0
墨江哈尼族自治县,101.692461,23.431894,1359.0
景东彝族自治县,100.833877,24.446731,1229.0
景谷傣族彝族自治县,100.702807,23.496987,934.0
镇沅彝族哈尼族拉祜族自治县,101.108733,24.00445,1161.0
江城哈尼族彝族自治县,101.862344,22.585858,1185.0
孟连傣族拉祜族佤族自治县,99.584225,22.329053,976.0
澜沧拉祜族自治县,99.932045,22.555799,1045.0
西盟佤族自治县,99.59016,22.644237,1295.0
临沧市,100.088837,23.884175,1480.0
凤庆县,99.92873,24.580559,1601.0
云县,100.1303,24.444461,1106.0
永德县,99.258702,24.018463,1514.0
镇康县,98.825389,23.762886,1029.0
双江拉祜族佤族布朗族傣族自治县,99.828225,23.472719,1063.0
耿马傣族佤族自治县,99.397126,23.538092,1106.0
沧源佤族自治县,99.245894,23.146758,1281.0
楚雄彝族自治州,101.528304,25.045678,1804.0
楚雄市,101.528304,25.045678,1804.0
禄丰市,102.079082,25.151061,1587.0
双柏县,101.642369,24.688814,1996.0
牟定县,101.546898,25.312939,1782.0
南华县,101.283236,25.200163,1873.0
姚安县,101.241632,25.504287,1882.0
大姚县,101.336576,25.729551,1877.0
永仁县,101.666795,26.049522,1541.0
元谋县,101.87434,25.704499,1107.0
武定县,102.403949,25.530731,1749.0
红河哈尼族彝族自治州,103.374873,23.363129,1304.0
个旧市,103.152663,23.389935,1789.0
开远市,103.266908,23.714518,1079.0
蒙自市,103.364936,23.396111,1297.0
弥勒市,103.414817,24.411774,1433.0
屏边苗族自治县,103.675458,22.986733,1417.0
建水县,102.826178,23.635824,1329.0
石屏县,102.496138,23.705707,1424.0
泸西县,103.76615,24.531981,1745.0
元阳县,102.835358,23.219671,358.0
红河县,102.420566,23.368946,791.0
金平苗族瑶族傣族自治县,103.227982,22.769894,1355.0
绿春县,102.392655,22.993654,1559.0
河口瑶族自治县,103.939265,22.529438,117.0
文山壮族苗族自治州,104.21567,23.400983,1272.0
文山市,104.21567,23.400983,1272.0
砚山县,104.336905,23.605075,1543.0
西畴县,104.671802,23.437707,1545.0
麻栗坡县,104.702732,23.125837,1162.0
马关县,104.394524,23.013108,1314.0
丘北县,104.166713,24.05064,1480.0
广南县,105.055075,24.046378,1229.0
富宁县,105.630921,23.625072,746.0
西双版纳傣族自治州,100.797002,22.009037,552.0
景洪市,100.799595,22.011792,550.0
勐海县,100.452444,21.957323,1189.0
勐腊县,101.564635,21.459233,651.0
大理白族自治州,100.267608,25.606548,1990.0
大理市,100.301614,25.678466,2047.0
漾濞彝族自治县,99.958089,25.669944,1595.0
祥云县,100.549961,25.483727,2009.0
宾川县,100.590274,25.830491,1444.0
弥渡县,100.491038,25.343778,1686.0
南涧彝族自治县,100.510333,25.032353,1430.0
巍山彝族回族自治县,100.306977,25.227065,1737.0
永平县,99.54063,25.464134,1683.0
云龙县,99.371021,25.885733,1792.0
洱源县,99.962294,26.11337,2064.0
剑川县,99.905041,26.536889,2229.0
鹤庆县,100.176331,26.560122,2201.0
德宏傣族景颇族自治州,98.585621,24.433146,931.0
瑞丽市,97.855423,24.018377,781.0
芒市,98.58809,24.433766,938.0
梁河县,98.296584,24.804275,1105.0
盈江县,97.943474,24.691325,830.0
陇川县,97.793359,24.182347,958.0
怒江傈僳族自治州,98.8566,25.817555,1019.0
泸水市,98.857723,25.822579,1034.0
福贡县,98.869132,26.901831,1375.0
贡山独龙族怒族自治县,98.666279,27.740839,1674.0
兰坪白族普米族自治县,99.416628,26.453622,2436.0
迪庆藏族自治州,99.70211,27.819149,3311.0
香格里拉市,99.743582,27.842185,3316.0
德钦县,98.917851,28.464213,3298.0
维西傈僳族自治县,99.300937,27.163808,2315.0
拉萨市,91.171924,29.653491,3667.0
林周县,91.265287,29.893545,3756.0
当雄县,91.101186,30.473134,4308.0
尼木县,90.16446,29.43202,3815.0
曲水县,90.743355,29.354293,3623.0
墨竹工卡县,91.739134,29.850344,3841.0
日喀则市,88.880423,29.266838,3856.0
南木林县,89.099243,29.682331,4023.0
江孜县,89.605654,28.91186,4035.0
定日县,87.12612,28.658743,4377.0
萨迦县,88.021674,28.899664,4368.0
拉孜县,87.636934,29.08188,4041.0
昂仁县,87.227739,29.299444,4350.0
谢通门县,88.255784,29.425455,4013.0
白朗县,89.261977,29.107688,3924.0
仁布县,89.841983,29.230933,4007.0
康马县,89.681663,28.555627,4482.0
定结县,87.765872,28.364159,4259.0
仲巴县,84.03153,29.770279,4617.0
亚东县,88.907136,27.486094,3241.0
吉隆县,85.298109,28.856542,4150.0
聂拉木县,85.982237,28.155186,3861.0
萨嘎县,85.232941,29.328818,4553.0
岗巴县,88.515318,28.271189,4616.0
昌都市,97.170425,31.142879,3413.0
江达县,98.218336,31.499176,3745.0
贡觉县,98.27097,30.860099,3668.0
类乌齐县,96.600246,31.211601,3880.0
丁青县,95.619868,31.409024,3906.0
察雅县,97.568752,30.653943,3315.0
八宿县,96.917836,30.053209,3526.0
左贡县,97.841176,29.671488,4009.0
芒康县,98.593493,29.679957,3954.0
洛隆县,95.825169,30.741988,3800.0
边坝县,94.7078,30.933652,3920.0
林芝市,94.361436,29.64875,3028.0
工布江达县,93.246077,29.88528,3524.0
墨脱县,95.332108,29.325425,1195.0
波密县,95.768439,29.859751,2882.0
察隅县,97.466919,28.66128,2630.0
朗县,93.074702,29.046337,3354.0
米林市,94.213059,29.215971,3039.0
山南市,91.771426,29.237722,3598.0
扎囊县,91.33725,29.245113,3631.0
贡嘎县,90.978425,29.290169,3635.0
桑日县,92.017723,29.259439,3597.0
琼结县,91.684307,29.024492,3815.0
曲松县,92.203738,29.062826,3965.0
措美县,91.433509,28.438202,4166.0
洛扎县,90.859971,28.385811,4116.0
加查县,92.592701,29.140355,3388.0
隆子县,92.463309,28.408548,3896.0
浪卡子县,90.400251,28.96693,4478.0
错那市,91.957155,27.991121,4437.0
那曲市,92.05151,31.477905,4511.0
嘉黎县,93.232347,30.641543,4604.0
比如县,93.681302,31.477914,4090.0
聂荣县,92.303377,32.10775,4665.0
安多县,91.68195,32.265016,4696.0
申扎县,88.709936,30.93045,4732.0
索县,93.785068,31.888045,4039.0
班戈县,90.009822,31.392157,4773.0
巴青县,94.053438,31.91847,4303.0
尼玛县,87.236772,31.784701,4546.0
双湖县,88.838017,33.188355,4920.0
普兰县,81.177116,30.290467,3940.0
札达县,79.807096,31.479882,3797.0
噶尔县,80.096591,32.492078,4284.0
日土县,79.733552,33.382017,4280.0
革吉县,81.145433,32.387233,4522.0
改则县,84.062612,32.303148,4424.0
措勤县,85.151881,31.017272,4665.0
西安市,108.939645,34.343207,381.0
蓝田县,109.323473,34.151256,518.0
周至县,108.222219,34.163592,430.0
铜川市,108.945116,34.897133,712.0
宜君县,109.117063,35.398624,1330.0
宝鸡市,107.237682,34.362862,593.0
岐山县,107.621397,34.44373,680.0
扶风县,107.900157,34.375636,586.0
眉县,107.750039,34.274774,510.0
陇县,106.864404,34.892985,925.0
千阳县,107.132421,34.642374,769.0
麟游县,107.793524,34.677902,1098.0
凤县,106.515841,33.910797,1099.0
太白县,107.318932,34.058299,1572.0
咸阳市,108.708837,34.329896,385.0
三原县,108.940754,34.617282,420.0
泾阳县,108.843029,34.526557,402.0
乾县,108.239316,34.528262,643.0
礼泉县,108.424682,34.481875,554.0
永寿县,108.142197,34.69188,991.0
长武县,107.79906,35.206273,1176.0
旬邑县,108.333815,35.111787,1026.0
淳化县,108.580164,34.798596,902.0
武功县,108.200275,34.261026,446.0
兴平市,108.490497,34.299199,418.0
彬州市,108.081892,35.035702,853.0
渭南市,109.470962,34.520632,347.0
潼关县,110.246105,34.544294,556.0
大荔县,109.941784,34.797073,349.0
合阳县,110.149412,35.237881,725.0
澄城县,109.932439,35.190256,684.0
蒲城县,109.586263,34.955755,489.0
白水县,109.590501,35.177497,762.0
富平县,109.179903,34.751599,442.0
韩城市,110.44295,35.477145,441.0
华阴市,110.092286,34.566552,348.0
延安市,109.49468,36.650109,1118.0
延长县,110.012455,36.579354,888.0
延川县,110.193503,36.878324,864.0
志丹县,108.767816,36.822232,1302.0
吴起县,108.176501,36.92746,1396.0
甘泉县,109.351046,36.276645,1042.0
富县,109.37884,35.988111,992.0
洛川县,109.43249,35.762626,1151.0
宜川县,110.168963,36.050178,886.0
黄龙县,109.84029,35.584655,1180.0
黄陵县,109.262919,35.579421,889.0
子长市,109.675284,37.142462,1108.0
汉中市,107.02319,33.066373,510.0
城固县,107.333787,33.156937,480.0
洋县,107.545678,33.222808,470.0
西乡县,107.766477,32.983282,439.0
勉县,106.673217,33.153636,552.0
宁强县,106.257636,32.830032,821.0
略阳县,106.15658,33.327293,797.0
镇巴县,107.895015,32.536706,859.0
留坝县,106.920781,33.617637,1034.0
佛坪县,107.990551,33.524261,1014.0
榆林市,109.734104,38.28576,1072.0
府谷县,111.016431,39.015658,841.0
靖边县,108.794153,37.600351,1336.0
定边县,107.601048,37.594976,1372.0
绥德县,110.263226,37.502984,840.0
米脂县,110.183984,37.755134,921.0
佳县,110.491345,38.01951,767.0
吴堡县,110.739726,37.452179,732.0
清涧县,110.121181,37.088921,954.0
子洲县,110.035124,37.610554,959.0
神木市,110.466867,38.899742,955.0
安康市,109.029017,32.685435,282.0
汉阴县,108.508792,32.893057,393.0
石泉县,108.248061,33.03805,423.0
宁陕县,108.314299,33.310284,930.0
紫阳县,108.534291,32.520209,437.0
岚皋县,108.902049,32.307001,593.0
平利县,109.361919,32.389061,542.0
镇坪县,109.526873,31.883672,1113.0
白河县,110.112608,32.80901,326.0
旬阳市,109.361783,32.832213,303.0
商洛市,109.918646,33.873358,729.0
洛南县,110.148526,34.090815,954.0
丹凤县,110.327542,33.696254,619.0
商南县,110.881741,33.531071,511.0
山阳县,109.882289,33.532172,711.0
镇安县,109.152833,33.423764,744.0
柞水县,109.114006,33.686048,994.0
兰州市,103.834228,36.060798,1525.0
永登县,103.260273,36.736457,2125.0
皋兰县,103.947345,36.332434,1666.0
榆中县,104.112541,35.843354,1981.0
嘉峪关市,98.2882,39.77325,1659.0
金昌市,102.187972,38.521468,1525.0
永昌县,101.984642,38.243534,1962.0
白银市,104.138872,36.545123,1727.0
靖远县,104.676202,36.571736,1401.0
会宁县,105.052883,35.693241,1771.0
景泰县,104.063125,37.18351,1627.0
天水市,105.724828,34.581514,1193.0
清水县,106.137318,34.749906,1391.0
秦安县,105.675799,34.859094,1288.0
甘谷县,105.340789,34.745447,1285.0
武山县,104.89121,34.72183,1567.0
张家川回族自治县,106.20513,34.988676,1703.0
武威市,102.637821,37.92898,1534.0
民勤县,103.093671,38.624293,1369.0
古浪县,102.897542,37.470882,2093.0
天祝藏族自治县,103.142416,36.971978,2432.0
张掖市,100.449858,38.924766,1484.0
肃南裕固族自治县,99.615601,38.836931,2352.0
民乐县,100.812047,38.430318,2306.0
临泽县,100.164333,39.15224,1448.0
高台县,99.819265,39.378294,1348.0
山丹县,101.088611,38.7846,1766.0
平凉市,106.664913,35.542417,1394.0
泾川县,107.367608,35.332992,1078.0
灵台县,107.595874,35.070027,1028.0
崇信县,107.025762,35.305648,1207.0
庄浪县,106.036201,35.20266,1620.0
静宁县,105.732165,35.522035,1678.0
华亭市,106.628899,35.207695,1511.0
酒泉市,98.49432,39.733416,1481.0
金塔县,98.901523,39.984146,1270.0
瓜州县,95.782255,40.520457,1176.0
肃北蒙古族自治县,94.876533,39.512158,2157.0
阿克塞哈萨克族自治县,94.340202,39.633944,1680.0
玉门市,97.045617,40.292344,1501.0
敦煌市,94.66201,40.142141,1142.0
庆阳市,107.643433,35.709459,1402.0
庆城县,107.881706,36.016125,1105.0
环县,107.308788,36.568566,1288.0
华池县,107.98972,36.461474,1361.0
合水县,108.021859,35.833908,1283.0
正宁县,108.359964,35.492158,1416.0
宁县,107.913463,35.509252,996.0
镇原县,107.200888,35.677705,1230.0
定西市,104.592342,35.607947,1921.0
通渭县,105.242312,35.211311,1824.0
陇西县,104.634928,35.003899,1745.0
渭源县,104.215092,35.137028,2115.0
临洮县,103.859446,35.394993,1878.0
漳县,104.471722,34.84854,1918.0
岷县,104.036731,34.43833,2360.0
陇南市,104.960296,33.370174,1058.0
成县,105.742508,33.750722,984.0
文县,104.6835,32.944031,1183.0
宕昌县,104.393385,34.047261,1891.0
康县,105.608609,33.329212,1382.0
西和县,105.298756,34.014215,1623.0
礼县,105.17864,34.189345,1447.0
徽县,106.087156,33.769927,935.0
两当县,106.304973,33.908952,1045.0
临夏回族自治州,103.210386,35.601792,1898.0
临夏市,103.210386,35.601792,1898.0
临夏县,103.04068,35.478726,2095.0
康乐县,103.708507,35.370296,2023.0
永靖县,103.285853,35.958306,1644.0
广河县,103.575582,35.488248,2000.0
和政县,103.350996,35.424602,2144.0
东乡族自治县,103.388122,35.664409,2341.0
积石山保安族东乡族撒拉族自治县,102.875939,35.717697,2289.0
甘南藏族自治州,102.911736,34.983266,2920.0
合作市,102.910305,35.000228,2907.0
临潭县,103.353665,34.693009,2813.0
卓尼县,103.506849,34.589476,2676.0
舟曲县,104.251543,33.793695,1663.0
迭部县,103.221735,34.055888,2518.0
玛曲县,102.072608,33.998145,3474.0
碌曲县,102.487512,34.591084,3177.0
夏河县,102.548303,35.203857,2992.0
西宁市,101.777795,36.616621,2265.0
大通回族土族自治县,101.685503,36.926872,2495.0
湟源县,101.256464,36.682426,2653.0
海东市,102.41064,36.473448,2004.0
民和回族土族自治县,102.830775,36.320038,1825.0
互助土族自治县,101.958519,36.844027,2541.0
化隆回族自治县,102.266007,36.096124,2830.0
循化撒拉族自治县,102.488958,35.851079,1887.0
海北藏族自治州,100.900944,36.954612,3099.0
门源回族自治县,101.611524,37.388567,2900.0
祁连县,100.253211,38.177112,2803.0
海晏县,100.994521,36.896667,3015.0
刚察县,100.145662,37.325096,3311.0
黄南藏族自治州,102.015397,35.519317,2532.0
同仁市,102.018663,35.515769,2530.0
尖扎县,102.040094,35.943253,2074.0
泽库县,101.466565,35.035322,3656.0
河南蒙古族自治县,101.617719,34.734777,3544.0
海南藏族自治州,100.622647,36.296399,2896.0
共和县,100.619405,36.284158,2866.0
同德县,100.577859,35.254297,3167.0
贵德县,101.43403,36.039672,2234.0
兴海县,99.987799,35.589086,3299.0
贵南县,100.747731,35.587239,3134.0
果洛藏族自治州,100.245161,34.472179,3747.0
玛沁县,100.238873,34.478049,3742.0
班玛县,100.737138,32.932723,3636.0
甘德县,99.900923,33.969216,4054.0
达日县,99.651863,33.739293,4053.0
久治县,101.482831,33.429471,3664.0
玛多县,98.209217,34.915645,4285.0
玉树藏族自治州,97.006292,33.006308,3800.0
玉树市,97.006292,33.006308,3800.0
杂多县,95.300723,32.893185,4226.0
称多县,97.109487,33.377504,3925.0
治多县,95.618954,33.844854,4198.0
囊谦县,96.489538,32.203193,3654.0
曲麻莱县,95.805463,34.137353,4224.0
海西蒙古族藏族自治州,97.33197,37.348114,2969.0
格尔木市,94.928293,36.407272,2811.0
德令哈市,97.361528,37.369865,2991.0
茫崖市,90.856372,38.247537,2950.0
乌兰县,98.47988,36.941279,2987.0
都兰县,98.095889,36.302098,3184.0
天峻县,99.02297,37.301206,3409.0
大柴旦行政委员会,95.365227,37.852088,3196.0
银川市,106.230977,38.487783,1110.0
永宁县,106.25337,38.277376,1118.0
贺兰县,106.365074,38.579147,1106.0
灵武市,106.339978,38.102456,1126.0
石嘴山市,106.382792,38.984632,1101.0
平罗县,106.523411,38.913923,1098.0
吴忠市,106.198613,37.997755,1126.0
盐池县,107.407184,37.783276,1347.0
同心县,105.895412,36.954635,1343.0
青铜峡市,106.07906,38.021579,1128.0
固原市,106.24267,36.01628,1790.0
西吉县,105.729189,35.963885,1952.0
隆德县,106.111321,35.62592,2157.0
泾源县,106.330569,35.497887,1953.0
彭阳县,106.632151,35.860067,1517.0
中卫市,105.19677,37.500185,1226.0
中宁县,105.684729,37.492092,1185.0
海原县,105.643449,36.565189,1842.0
乌鲁木齐市,87.616824,43.825377,837.0
乌鲁木齐县,87.464257,43.509016,1560.0
克拉玛依市,84.889239,45.577712,350.0
吐鲁番市,89.190374,42.950736,38.0
鄯善县,90.242843,42.900575,427.0
托克逊县,88.643739,42.802585,3.0
哈密市,93.515053,42.819346,756.0
巴里坤哈萨克自治县,93.016563,43.598756,1637.0
伊吾县,94.697074,43.254978,1753.0
昌吉回族自治州,87.308995,44.011044,577.0
昌吉市,87.308995,44.011044,577.0
阜康市,87.953826,44.164525,542.0
呼图壁县,86.871532,44.179362,545.0
玛纳斯县,86.20488,44.284601,494.0
奇台县,89.593879,44.022001,764.0
吉木萨尔县,89.179698,44.000404,727.0
木垒哈萨克自治县,90.286013,43.834631,1276.0
博尔塔拉蒙古自治州,82.066363,44.906039,520.0
博乐市,82.051433,44.853882,533.0
阿拉山口市,82.554609,45.173274,347.0
精河县,82.890709,44.599202,318.0
温泉县,81.024827,44.968857,1360.0
巴音郭楞蒙古自治州,86.145298,41.764115,944.0
库尔勒市,86.174633,41.725891,938.0
轮台县,84.251508,41.778043,976.0
尉犁县,86.261613,41.343871,888.0
若羌县,88.167226,39.022626,891.0
且末县,85.529619,38.145749,1247.0
焉耆回族自治县,86.57434,42.059509,1058.0
和静县,86.384065,42.323625,1115.0
和硕县,86.877688,42.28361,1121.0
博湖县,86.632116,41.980745,1055.0
阿克苏市,80.263387,41.16755,1107.0
库车市,82.998544,41.719073,1070.0
温宿县,80.243273,41.272995,1144.0
沙雅县,82.781774,41.221413,981.0
新和县,82.620371,41.552097,1014.0
拜城县,81.851289,41.795289,1239.0
乌什县,79.22118,41.222706,1414.0
阿瓦提县,80.375053,40.643647,1047.0
柯坪县,79.054019,40.501645,1154.0
克孜勒苏柯尔克孜自治州,76.167327,39.714734,1315.0
阿图什市,76.167538,39.716586,1316.0
阿克陶县,75.947396,39.147785,1318.0
阿合奇县,78.402073,40.937581,2034.0
乌恰县,75.259228,39.7205,2181.0
喀什市,75.993936,39.46823,1290.0
疏附县,75.862839,39.375052,1330.0
疏勒县,76.047169,39.401173,1268.0
英吉沙县,76.175729,38.930381,1296.0
泽普县,77.260375,38.184639,1275.0
莎车县,77.223197,38.390881,1237.0
叶城县,77.413669,37.882994,1352.0
麦盖提县,77.609099,38.898986,1178.0
岳普湖县,76.821269,39.219857,1200.0
伽师县,76.723719,39.488181,1209.0
巴楚县,78.54799,39.79923,1118.0
塔什库尔干塔吉克自治县,75.229889,37.772094,3083.0
和田市,79.912881,37.112246,1379.0
和田县,79.81907,37.120031,1373.0
墨玉县,79.728434,37.277518,1326.0
皮山县,78.28548,37.578264,1384.0
洛浦县,80.179911,37.066226,1348.0
策勒县,80.801433,36.99785,1392.0
于田县,81.677417,36.85708,1422.0
民丰县,82.695946,37.064428,1414.0
伊犁哈萨克自治州,81.323691,43.917106,645.0
伊宁市,81.277715,43.908021,619.0
奎屯市,84.903216,44.426452,480.0
霍尔果斯市,80.414614,44.218381,810.0
伊宁县,81.52745,43.977119,788.0
察布查尔锡伯自治县,81.151337,43.840726,597.0
霍城县,80.878845,44.056329,642.0
巩留县,82.231219,43.48313,770.0
新源县,83.233002,43.434803,932.0
昭苏县,81.130974,43.157293,1890.0
特克斯县,81.835732,43.218435,1211.0
尼勒克县,82.511884,43.798627,1124.0
塔城市,82.986923,46.751669,556.0
乌苏市,84.713762,44.418693,513.0
沙湾市,85.619483,44.326267,527.0
额敏县,83.628303,46.524673,518.0
托里县,83.606372,45.948935,1047.0
裕民县,82.982252,46.201049,723.0
和布克赛尔蒙古自治县,85.728328,46.793235,1294.0
阿勒泰市,88.131842,47.827308,865.0
布尔津县,86.875043,47.701892,472.0
富蕴县,89.525463,46.994046,821.0
福海县,87.486703,47.111918,496.0
哈巴河县,86.418621,48.060846,534.0
青河县,90.375159,46.678532,1265.0
吉木乃县,85.874096,47.443101,968.0
石河子市,86.080397,44.305368,483.0
阿拉尔市,81.280532,40.547205,1012.0
图木舒克市,79.074965,39.867776,1097.0
五家渠市,87.542852,44.166489,472.0
北屯市,87.834419,47.326733,527.0
铁门关市,85.670291,41.862997,925.0
双河市,82.353656,44.840524,334.0
可克达拉市,80.994153,43.940381,576.0
昆玉市,79.270193,37.215372,1402.0
胡杨河市,84.827592,44.692894,338.0
新星市,93.748544,42.796979,820.0
白杨市,103.542774,35.407214,2243.0
北京市,116.407387,39.904179,51.0
天津市,117.201509,39.085318,6.0
上海市,121.473667,31.230525,13.0
重庆市,106.550483,29.563707,218.0
